[{"geometry": {"location": {"lat": 21.0237336, "lng": 105.8058608}, "viewport": {"northeast": {"lat": 21.0249941302915, "lng": 105.8071960302915}, "southwest": {"lat": 21.0222961697085, "lng": 105.8044980697085}}}, "icon": "https://maps.gstatic.com/mapfiles/place_api/icons/generic_business-71.png", "id": "f322ee8914dd743b154dda1f113449b88f9da018", "name": "Vietnam Art Collection", "opening_hours": {"open_now": true}, "photos": [{"height": 1072, "html_attributions": ["<a href=\"https://maps.google.com/maps/contrib/117691200673280481522/photos\">linh bui</a>"], "photo_reference": "CmRaAAAAtZ7TsjlWVbARbu1h7g8rnUh3J7T-zDQzquOTIJSF-I83whr5y-dqlNuhoJp_4MHMuL45XARpd666xWNohTpagI5jWJ5kZIf8aeFdv-tCBcKc9z4t9Yh9LQbDOls40VpiEhA9n2BkAdxWQ0Q1iwTPD5YuGhRXAyMarhdj1P_CdwBB9O7xaDOWiA", "width": 1478}], "place_id": "ChIJWTHtA2irNTERlhKCi4sVJvg", "plus_code": {"compound_code": "2RF4+F8 Hanoi, Ho\u00e0n Ki\u1ebfm, Hanoi, Vietnam", "global_code": "7PH72RF4+F8"}, "reference": "ChIJWTHtA2irNTERlhKCi4sVJvg", "scope": "GOOGLE", "types": ["art_gallery", "point_of_interest", "establishment"], "vicinity": "Ch\u00f9a L\u00e1ng, L\u00e1ng Th\u01b0\u1ee3ng", "unified_type": "art_gallery"}, {"geometry": {"location": {"lat": 21.03323719999999, "lng": 105.8033502}, "viewport": {"northeast": {"lat": 21.0345476802915, "lng": 105.8047644302915}, "southwest": {"lat": 21.03184971970849, "lng": 105.8020664697085}}}, "icon": "https://maps.gstatic.com/mapfiles/place_api/icons/generic_business-71.png", "id": "3008ee354be83697b07df11e8adfd26be813b700", "name": "Ph\u00f2ng Tranh H\u1ecda S\u0129 \u0110\u1ed7 Trung Ki\u00ean", "place_id": "ChIJV0GzRECrNTER9FqL43skoWs", "plus_code": {"compound_code": "2RM3+78 Hanoi, Ho\u00e0n Ki\u1ebfm, Hanoi, Vietnam", "global_code": "7PH72RM3+78"}, "rating": 5, "reference": "ChIJV0GzRECrNTER9FqL43skoWs", "scope": "GOOGLE", "types": ["art_gallery", "point_of_interest", "establishment"], "user_ratings_total": 1, "vicinity": "106 Quan Hoa", "unified_type": "art_gallery"}, {"geometry": {"location": {"lat": 21.0334463, "lng": 105.808771}, "viewport": {"northeast": {"lat": 21.0348116302915, "lng": 105.8100770802915}, "southwest": {"lat": 21.03211366970849, "lng": 105.8073791197085}}}, "icon": "https://maps.gstatic.com/mapfiles/place_api/icons/generic_business-71.png", "id": "d36683eb26ec21092d224fbcfa5b88f108dbe529", "name": "H\u1ea3i Xu\u00e2n", "place_id": "ChIJY9pGIWurNTER6LZzUTmTOLA", "plus_code": {"compound_code": "2RM5+9G Hanoi, Ho\u00e0n Ki\u1ebfm, Hanoi, Vietnam", "global_code": "7PH72RM5+9G"}, "reference": "ChIJY9pGIWurNTER6LZzUTmTOLA", "scope": "GOOGLE", "types": ["art_gallery", "point_of_interest", "establishment"], "vicinity": "Ng\u00f5 36 - \u0110\u00e0o T\u1ea5n, C\u1ed1ng V\u1ecb", "unified_type": "art_gallery"}, {"geometry": {"location": {"lat": 21.0289062, "lng": 105.8052278}, "viewport": {"northeast": {"lat": 21.0301763802915, "lng": 105.8064243802915}, "southwest": {"lat": 21.0274784197085, "lng": 105.8037264197085}}}, "icon": "https://maps.gstatic.com/mapfiles/place_api/icons/generic_business-71.png", "id": "5d6f1bda1090ce31869b2ad99d938a17e352fa97", "name": "Oil painting workshop TASODA", "opening_hours": {"open_now": true}, "photos": [{"height": 1536, "html_attributions": ["<a href=\"https://maps.google.com/maps/contrib/104936909138303078506/photos\">Hi\u1ec7p Nghi\u00eam V\u0103n</a>"], "photo_reference": "CmRaAAAAlzC48-Cna-xFoJTxCUzhvIDpMWnUtCbsQjTf7po2kDYrmPzcpHRDWcvwq2KUUVU5ECcId4t1aBS9b4ke3C57p06qq54qBEymafA3Wd_p50Z1onLVHFuLLjdQTSMfxv2xEhCRe2giZj-kxaD9J2wXNHxAGhR27aENCosby2SIoEWrMlfjYha-Ug", "width": 2048}], "place_id": "ChIJW-c6HEKrNTERADZhUbXJq9M", "plus_code": {"compound_code": "2RH4+H3 Hanoi, Ho\u00e0n Ki\u1ebfm, Hanoi, Vietnam", "global_code": "7PH72RH4+H3"}, "rating": 4.2, "reference": "ChIJW-c6HEKrNTERADZhUbXJq9M", "scope": "GOOGLE", "types": ["art_gallery", "point_of_interest", "establishment"], "user_ratings_total": 6, "vicinity": "S\u1ed1 32C Voi Ph\u1ee5c, Ng\u1ecdc Kh\u00e1nh", "unified_type": "art_gallery"}, {"geometry": {"location": {"lat": 21.0292863, "lng": 105.8074275}, "viewport": {"northeast": {"lat": 21.0306660302915, "lng": 105.8087717802915}, "southwest": {"lat": 21.0279680697085, "lng": 105.8060738197085}}}, "icon": "https://maps.gstatic.com/mapfiles/place_api/icons/shopping-71.png", "id": "888dcee4ab07a8f9bacdab32942cd6d654ebbe90", "name": "X\u01b0\u1edfng Tranh S\u01a1n D\u1ea7u H\u00f2a Chi", "opening_hours": {"open_now": true}, "photos": [{"height": 2448, "html_attributions": ["<a href=\"https://maps.google.com/maps/contrib/105156227107008299831/photos\">X\u01b0\u1edfng Tranh S\u01a1n D\u1ea7u H\u00f2a Chi</a>"], "photo_reference": "CmRaAAAAAbNPLyErvg5KR_tDJ5fj29CulwCsZ8FuLVTYd90DQa4an0XE_5VPmtOnccGBs1xCNnnwMNUFejnPgQ14o-jVMJkSm_SHS6axj5LkDXmqlftkaINkxCCOYqKV9YCYHSbxEhAHyqqiwE9ROgIgyyGTEuq2GhSZSdytiFKHd1UTLnaosbXQ8-MnLw", "width": 2448}], "place_id": "ChIJswHRGBGrNTERhEdhljDPRAs", "plus_code": {"compound_code": "2RH4+PX Ng\u1ecdc Kh\u00e1nh, Ba \u0110\u00ecnh, Hanoi, Vietnam", "global_code": "7PH72RH4+PX"}, "rating": 5, "reference": "ChIJswHRGBGrNTERhEdhljDPRAs", "scope": "GOOGLE", "types": ["art_gallery", "store", "point_of_interest", "establishment"], "user_ratings_total": 8, "vicinity": "633 Kim M\u00e3, Ng\u1ecdc Kh\u00e1nh", "unified_type": "art_gallery"}]