[{"geometry": {"location": {"lat": 21.0266749, "lng": 105.8412202}, "viewport": {"northeast": {"lat": 21.0280136302915, "lng": 105.8427124302915}, "southwest": {"lat": 21.0253156697085, "lng": 105.8400144697085}}}, "icon": "https://maps.gstatic.com/mapfiles/place_api/icons/lodging-71.png", "id": "d9b02256cde63bceb3b99693a64f7e9557779a56", "name": "Cosiana Hotel Hanoi", "opening_hours": {"open_now": false}, "photos": [{"height": 2976, "html_attributions": ["<a href=\"https://maps.google.com/maps/contrib/114477198992241578831/photos\">Muhamad Samudi Yasir</a>"], "photo_reference": "CmRaAAAAhnmec1bWy0CYkbBVXOpzvtryzTH5W5k47gOzTbId9tiz3_TI2154pdcbqxZu844qw8FOq-yRDjKHL6LquWxLmkWZsttuS3B5YOjGscv1uznlo0id50UpXkwYRWN26BEJEhBx9HswSQqvw1yN7swrm3IDGhRhn5pEcYwYBub_KxGpNHJDB5XBxw", "width": 3968}], "place_id": "ChIJd_7faZerNTER7QEP3uWnx-Q", "plus_code": {"compound_code": "2RGR+MF Hanoi, Ho\u00e0n Ki\u1ebfm, Hanoi, Vietnam", "global_code": "7PH72RGR+MF"}, "rating": 4.2, "reference": "ChIJd_7faZerNTER7QEP3uWnx-Q", "scope": "GOOGLE", "types": ["lodging", "restaurant", "point_of_interest", "food", "establishment"], "user_ratings_total": 297, "vicinity": "92 \u0110\u01b0\u1eddng L\u00ea Du\u1ea9n, V\u0103n Mi\u1ebfu"}, {"geometry": {"location": {"lat": 21.0261401, "lng": 105.84171}, "viewport": {"northeast": {"lat": 21.0274472802915, "lng": 105.8429436302915}, "southwest": {"lat": 21.0247493197085, "lng": 105.8402456697085}}}, "icon": "https://maps.gstatic.com/mapfiles/place_api/icons/lodging-71.png", "id": "da30a789085ae8a927135149a79f934e11c1a73c", "name": "H\u00f4tel Mercure Hano\u00ef La Gare", "opening_hours": {"open_now": true}, "photos": [{"height": 1536, "html_attributions": ["<a href=\"https://maps.google.com/maps/contrib/116484951244614713144/photos\">H\u00f4tel Mercure Hano\u00ef La Gare</a>"], "photo_reference": "CmRaAAAAkwWjYUbH7Av50GbzRF2xiFVjcK1laQPELrRyR2j5-ZsDLOiIRIbUTvT7KaINaxAh3eMtwukTZ0R9CnoxO-wTpwigzY0ODdUDfJer7cNWovLGL0wekTSMVW6OwQBXuU1ZEhAaHpREO3ylDpxAWE5U2dcnGhS3IHfHUzSY1pVKMd8HUkUNgdqhMA", "width": 2048}], "place_id": "ChIJ5dnaTperNTER6aFT1TxynAI", "plus_code": {"compound_code": "2RGR+FM Hanoi, Ho\u00e0n Ki\u1ebfm, Hanoi, Vietnam", "global_code": "7PH72RGR+FM"}, "rating": 4.4, "reference": "ChIJ5dnaTperNTER6aFT1TxynAI", "scope": "GOOGLE", "types": ["lodging", "restaurant", "point_of_interest", "food", "establishment"], "user_ratings_total": 655, "vicinity": "94 L\u00fd Th\u01b0\u1eddng Ki\u1ec7t, C\u1eeda Nam"}, {"geometry": {"location": {"lat": 21.0290349, "lng": 105.8411937}, "viewport": {"northeast": {"lat": 21.0303386802915, "lng": 105.8425264802915}, "southwest": {"lat": 21.0276407197085, "lng": 105.8398285197085}}}, "icon": "https://maps.gstatic.com/mapfiles/place_api/icons/cafe-71.png", "id": "cda75178ed065505ef2313fe05b71bdf13c14a31", "name": "Brother's Cafe", "opening_hours": {"open_now": true}, "photos": [{"height": 1188, "html_attributions": ["<a href=\"https://maps.google.com/maps/contrib/106691783393579966205/photos\">Kamruzzaman Nayan</a>"], "photo_reference": "CmRaAAAAuNoTKW8fzprQPouV-_QYZjqrMEKydXOFgRfO9avhd3HMUcDK2shOVxmQw2O-6tHS6d76RY8dY-KxeI6puhbedUacAD1WqTi96djXm3ucSkSTAbUivx2WngPewDwgf0DOEhDEMe_Pp8asBj14Twc0Tk2FGhTH5HxL7e7N7yss_Df2QKhXbRwMGQ", "width": 2576}], "place_id": "ChIJW_FoKJirNTERyjNFxu1OwV0", "plus_code": {"compound_code": "2RHR+JF Hanoi, Ho\u00e0n Ki\u1ebfm, Hanoi, Vietnam", "global_code": "7PH72RHR+JF"}, "price_level": 2, "rating": 4, "reference": "ChIJW_FoKJirNTERyjNFxu1OwV0", "scope": "GOOGLE", "types": ["cafe", "restaurant", "point_of_interest", "food", "establishment"], "user_ratings_total": 88, "vicinity": "26 Ph\u1ed1 Nguy\u1ec5n Th\u00e1i H\u1ecdc, \u0110i\u1ec7n B\u00e0n"}, {"geometry": {"location": {"lat": 21.029435, "lng": 105.8383561}, "viewport": {"northeast": {"lat": 21.0307916302915, "lng": 105.8396960802915}, "southwest": {"lat": 21.0280936697085, "lng": 105.8369981197085}}}, "icon": "https://maps.gstatic.com/mapfiles/place_api/icons/restaurant-71.png", "id": "8d5aabd4b90fa6fc3dd22ed803bbb5ef750a91ef", "name": "KFC", "opening_hours": {"open_now": true}, "photos": [{"height": 2160, "html_attributions": ["<a href=\"https://maps.google.com/maps/contrib/116587885531364355773/photos\">Sea Man</a>"], "photo_reference": "CmRaAAAA37jS4SbYm5SUURkKpt_KpooDoHEb_DnZtP0hWBXmffmUZWOsTfPr0fgqSrjkfHFlgTWMUox7ZnjULk_oThvj89IDUexu_Pcat2OZ6Zn7BjlUuPEJMshrReYP2h9V-e74EhDz8WsrvUfU39Y5x75Y9awiGhRi6CSEc5q7kCHUBRSW1DBRy_AF4g", "width": 3840}], "place_id": "ChIJtVWrW5irNTERzV_6rcWgXW8", "plus_code": {"compound_code": "2RHQ+Q8 Hanoi, Ho\u00e0n Ki\u1ebfm, Hanoi, Vietnam", "global_code": "7PH72RHQ+Q8"}, "price_level": 2, "rating": 4, "reference": "ChIJtVWrW5irNTERzV_6rcWgXW8", "scope": "GOOGLE", "types": ["restaurant", "point_of_interest", "food", "establishment"], "user_ratings_total": 322, "vicinity": "87 Nguy\u1ec5n Th\u00e1i H\u1ecdc, V\u0103n Mi\u1ebfu"}, {"geometry": {"location": {"lat": 21.0290349, "lng": 105.8411937}, "viewport": {"northeast": {"lat": 21.0303386802915, "lng": 105.8425264802915}, "southwest": {"lat": 21.0276407197085, "lng": 105.8398285197085}}}, "icon": "https://maps.gstatic.com/mapfiles/place_api/icons/restaurant-71.png", "id": "c28c95e173c595f1a84384d79b1bcab5084ae2db", "name": "Khai Silk", "photos": [{"height": 3456, "html_attributions": ["<a href=\"https://maps.google.com/maps/contrib/106331058909599140856/photos\">L\u01b0\u01a1ng Nguy\u1ec5n Thanh</a>"], "photo_reference": "CmRaAAAAJSBBmFUB3zqNRhr1Fjqd9bjYnjlf161edaz2A5vteo76hWh6JofmVDD4oHRXbqfKjqdZNo1SStcBWfWx19N6UVWKMAZH3wvX7gCG7EdSnKunMRe3yn35qJbIHffb12bkEhBxt_Pmj3A3WN2BBNrWQDCiGhQGd8kFrhLQBP9xvb96BdYTY-4dJA", "width": 4608}], "place_id": "ChIJHy8sT5-rNTERfZiR3ZGNemQ", "plus_code": {"compound_code": "2RHR+JF Hanoi, Ho\u00e0n Ki\u1ebfm, Hanoi, Vietnam", "global_code": "7PH72RHR+JF"}, "rating": 3.2, "reference": "ChIJHy8sT5-rNTERfZiR3ZGNemQ", "scope": "GOOGLE", "types": ["restaurant", "point_of_interest", "food", "establishment"], "user_ratings_total": 18, "vicinity": "26 Ph\u1ed1 Nguy\u1ec5n Th\u00e1i H\u1ecdc, \u0110i\u1ec7n B\u00e0n"}, {"geometry": {"location": {"lat": 21.026596, "lng": 105.8431384}, "viewport": {"northeast": {"lat": 21.0278878802915, "lng": 105.8444853302915}, "southwest": {"lat": 21.0251899197085, "lng": 105.8417873697085}}}, "icon": "https://maps.gstatic.com/mapfiles/place_api/icons/restaurant-71.png", "id": "d5cb2f023e4cc4eb50e189378788b4374c8bae7c", "name": "La Badiane", "opening_hours": {"open_now": false}, "photos": [{"height": 3024, "html_attributions": ["<a href=\"https://maps.google.com/maps/contrib/104974064935748420513/photos\">Kai Cung Lee</a>"], "photo_reference": "CmRaAAAAvWtVaoYrBMpwBQ6S4qQBh6NH_rHfiU4iZsgkAWUF4zK13zoGUxwq5oyp5webOE6QRZ8BGXjx20z9Fp4pO4dG22DS3RhCBhYoXlWUJtgIKCWJ1UxQZkKYIrMqim1q0TmkEhAtz8tjx3JKxa2OFRZTwNjNGhQ9o1esPHoSpkkljTjMINy1ciLMBA", "width": 4032}], "place_id": "ChIJ5TdcJJerNTERUplhitZYbdk", "plus_code": {"compound_code": "2RGV+J7 Hanoi, Ho\u00e0n Ki\u1ebfm, Hanoi, Vietnam", "global_code": "7PH72RGV+J7"}, "price_level": 3, "rating": 4.3, "reference": "ChIJ5TdcJJerNTERUplhitZYbdk", "scope": "GOOGLE", "types": ["restaurant", "point_of_interest", "food", "establishment"], "user_ratings_total": 680, "vicinity": "10 Nam Ng\u01b0, C\u1eeda Nam"}, {"geometry": {"location": {"lat": 21.0263642, "lng": 105.8427173}, "viewport": {"northeast": {"lat": 21.0277784302915, "lng": 105.8440673302915}, "southwest": {"lat": 21.0250804697085, "lng": 105.8413693697085}}}, "icon": "https://maps.gstatic.com/mapfiles/place_api/icons/restaurant-71.png", "id": "edb56a4649f12ef9d817a5e2051ba49822a7c3e7", "name": "Luna d' Autunno", "opening_hours": {"open_now": true}, "photos": [{"height": 3802, "html_attributions": ["<a href=\"https://maps.google.com/maps/contrib/116217592430715377408/photos\">Luna d&#39; Autunno</a>"], "photo_reference": "CmRaAAAAPzp_WZDVo8hY34zCKjBGRlvogP5fqaIXOLLHSCCdn-FlbEZWLmwJvgu9rgkLoRy_cCIcQwJkL5SOIO10gY7ceJC3pSD1zLBu2DsQpaKcgq1koDGWYB2Azwp3aKX0FOrpEhCngGMoYkzrUrrIXM5ROQgMGhSFzn4i3U2pci1Y-JYnmjhqsH9wVQ", "width": 6000}], "place_id": "ChIJObQwz5erNTERbxE58dL65Rk", "plus_code": {"compound_code": "2RGV+G3 Hanoi, Ho\u00e0n Ki\u1ebfm, Hanoi, Vietnam", "global_code": "7PH72RGV+G3"}, "rating": 4.3, "reference": "ChIJObQwz5erNTERbxE58dL65Rk", "scope": "GOOGLE", "types": ["meal_delivery", "restaurant", "point_of_interest", "food", "establishment"], "user_ratings_total": 238, "vicinity": "27 Nam Ng\u01b0, C\u1eeda Nam"}, {"geometry": {"location": {"lat": 21.026537, "lng": 105.838251}, "viewport": {"northeast": {"lat": 21.0278536802915, "lng": 105.8396777802915}, "southwest": {"lat": 21.0251557197085, "lng": 105.8369798197085}}}, "icon": "https://maps.gstatic.com/mapfiles/place_api/icons/restaurant-71.png", "id": "921d666e2d5ecc2f4a9379f2ccf4176a7e2546c1", "name": "\u0110\u1ed3 n\u01b0\u1edbng JaKo BBQ", "opening_hours": {"open_now": false}, "photos": [{"height": 918, "html_attributions": ["<a href=\"https://maps.google.com/maps/contrib/106756750763634850576/photos\">\u0110\u1ed3 n\u01b0\u1edbng JaKo BBQ</a>"], "photo_reference": "CmRaAAAAuJaoX5ivgtDqq1RO97HlrTJF7eKoO9u5fwWXMo3SrDxmOdhOwpxqu0Cz4ZYryAfuvZKde1J2UfeMhnnj5SY8iywht9Zci4i-usBJooakfOuhCnrPzRtEp6r32e2Hqr8mEhCsnHbAQmwOPaD9po0SrCITGhSuhJWT734-8Hn5TRnVZc4RuI6BVw", "width": 1632}], "place_id": "ChIJu9ZihJmrNTERa9EP7YS8Hi4", "plus_code": {"compound_code": "2RGQ+J8 Hanoi, Ho\u00e0n Ki\u1ebfm, Hanoi, Vietnam", "global_code": "7PH72RGQ+J8"}, "rating": 3, "reference": "ChIJu9ZihJmrNTERa9EP7YS8Hi4", "scope": "GOOGLE", "types": ["meal_takeaway", "restaurant", "point_of_interest", "food", "establishment"], "user_ratings_total": 3, "vicinity": "80 Ng\u00f4 S\u0129 Li\u00ean, V\u0103n Mi\u1ebfu"}, {"geometry": {"location": {"lat": 21.028964, "lng": 105.8432986}, "viewport": {"northeast": {"lat": 21.0303453302915, "lng": 105.8446179302915}, "southwest": {"lat": 21.0276473697085, "lng": 105.8419199697085}}}, "icon": "https://maps.gstatic.com/mapfiles/place_api/icons/restaurant-71.png", "id": "e8f5a14a87ce46cff867e3612cae4e43d353a6b8", "name": "Bleu de Thuy", "place_id": "ChIJ71QoOJarNTERfaGDJO1h3jA", "plus_code": {"compound_code": "2RHV+H8 Hanoi, Ho\u00e0n Ki\u1ebfm, Hanoi, Vietnam", "global_code": "7PH72RHV+H8"}, "rating": 2, "reference": "ChIJ71QoOJarNTERfaGDJO1h3jA", "scope": "GOOGLE", "types": ["restaurant", "point_of_interest", "food", "establishment"], "user_ratings_total": 1, "vicinity": "28 T\u1ed1ng Duy T\u00e2n, H\u00e0ng B\u00f4ng"}, {"geometry": {"location": {"lat": 21.0259189, "lng": 105.843397}, "viewport": {"northeast": {"lat": 21.0272749802915, "lng": 105.8447223802915}, "southwest": {"lat": 21.0245770197085, "lng": 105.8420244197085}}}, "icon": "https://maps.gstatic.com/mapfiles/place_api/icons/restaurant-71.png", "id": "14bfa1b5051de78283bd3c45fc70a7690922cda8", "name": "Saigon Hotel Hanoi", "photos": [{"height": 5312, "html_attributions": ["<a href=\"https://maps.google.com/maps/contrib/102354092879625115534/photos\">Andre Park</a>"], "photo_reference": "CmRaAAAAbArMaukWkzlhXUnAx6mka7nLYZnL4RJjjhoXgTUQUXlKcq0UtUwJqP0mDJA9APXlewIVvaBlqqcAA83tJivJahPsnVus0FuJoVkduRvapcBPg4litI9yczkZPARm_1gIEhCkulTrQT2rMw5ybRQvQdbGGhRPCDJhMEaTh8NG7inqrHgUu8b-kg", "width": 2988}], "place_id": "ChIJz8wvLJerNTERJ4sITwYaaUA", "plus_code": {"compound_code": "2RGV+99 Hanoi, Ho\u00e0n Ki\u1ebfm, Hanoi, Vietnam", "global_code": "7PH72RGV+99"}, "rating": 3.4, "reference": "ChIJz8wvLJerNTERJ4sITwYaaUA", "scope": "GOOGLE", "types": ["restaurant", "point_of_interest", "food", "establishment"], "user_ratings_total": 11, "vicinity": "22 Phan B\u1ed9i Ch\u00e2u, C\u1eeda Nam"}, {"geometry": {"location": {"lat": 21.027802, "lng": 105.8407724}, "viewport": {"northeast": {"lat": 21.0291115802915, "lng": 105.8421170802915}, "southwest": {"lat": 21.0264136197085, "lng": 105.8394191197085}}}, "icon": "https://maps.gstatic.com/mapfiles/place_api/icons/restaurant-71.png", "id": "0a26208fe6ef362ce885373b3711ee163650eed9", "name": "KC restaurant", "opening_hours": {"open_now": true}, "photos": [{"height": 400, "html_attributions": ["<a href=\"https://maps.google.com/maps/contrib/101076284914597329105/photos\">KC restaurant</a>"], "photo_reference": "CmRaAAAAmjANXFjML-3KQBGEOT-3BkaHM3SucykKYWlqHRCZqrkAwQ1jGvUS9EJmntxq0SwkuFZ1TQNEyujg6LsLohGtl0mh6TBV-aojJ2BS59s7gELJrpJa9NO3WXXpa8DQWx-OEhC7IFJYSpPr-edsmDvs8nfWGhRFhwb5SUw2Xr_2UdZVzJxPkOg-yA", "width": 600}], "place_id": "ChIJ4x0I2JmrNTERxAPCVSs6bSI", "plus_code": {"compound_code": "2RHR+48 Hanoi, Ho\u00e0n Ki\u1ebfm, Hanoi, Vietnam", "global_code": "7PH72RHR+48"}, "reference": "ChIJ4x0I2JmrNTERxAPCVSs6bSI", "scope": "GOOGLE", "types": ["restaurant", "point_of_interest", "food", "establishment"], "vicinity": "12 Ph\u1ed1 Nguy\u1ec5n Khuy\u1ebfn, V\u0103n Mi\u1ebfu"}, {"geometry": {"location": {"lat": 21.0280003, "lng": 105.8395253}, "viewport": {"northeast": {"lat": 21.0293799802915, "lng": 105.8408857802915}, "southwest": {"lat": 21.0266820197085, "lng": 105.8381878197085}}}, "icon": "https://maps.gstatic.com/mapfiles/place_api/icons/restaurant-71.png", "id": "7a2624e722a28fb3d9585a20d3483e7cadab6182", "name": "B\u00fan Ch\u1ea3 Sinh T\u1eeb", "opening_hours": {"open_now": true}, "photos": [{"height": 1536, "html_attributions": ["<a href=\"https://maps.google.com/maps/contrib/117045782722579851886/photos\">V\u00e2n Hu\u1ef3nh</a>"], "photo_reference": "CmRaAAAAZW-Ze-iRTq5SUpNQRZUTRVt6ZAaOMWr-LEoCiOPKBAHBWwR_j5iVooeVXkyYTBOlfVOUzmZz-Tb8sPQqu0jiLrWv_QZ66DpQWQLQfoz0jVhfCjRuOVzr8fhW6bVUdT19EhAuiMAHPHWTfZOA-6NV1p1PGhRUxrQ_wqzCYhTWgBdlNxJdfwQsZw", "width": 2048}], "place_id": "ChIJFWaWyJmrNTERLkbX93bN4ZY", "plus_code": {"compound_code": "2RHQ+6R Hanoi, Ho\u00e0n Ki\u1ebfm, Hanoi, Vietnam", "global_code": "7PH72RHQ+6R"}, "price_level": 2, "rating": 3.8, "reference": "ChIJFWaWyJmrNTERLkbX93bN4ZY", "scope": "GOOGLE", "types": ["restaurant", "point_of_interest", "food", "establishment"], "user_ratings_total": 85, "vicinity": "57A Ph\u1ed1 Nguy\u1ec5n Khuy\u1ebfn, V\u0103n Mi\u1ebfu"}, {"geometry": {"location": {"lat": 21.0256811, "lng": 105.8293914}, "viewport": {"northeast": {"lat": 21.0270098302915, "lng": 105.8307325302915}, "southwest": {"lat": 21.0243118697085, "lng": 105.8280345697085}}}, "icon": "https://maps.gstatic.com/mapfiles/place_api/icons/restaurant-71.png", "id": "dfaad685739597d5eba0c21c84e8831ace9f791a", "name": "B\u1ebfp \"b\u00e0 Ch\u00e0\"", "opening_hours": {"open_now": true}, "photos": [{"height": 800, "html_attributions": ["<a href=\"https://maps.google.com/maps/contrib/103630406921342327202/photos\">B\u1ebfp &quot;b\u00e0 Ch\u00e0&quot;</a>"], "photo_reference": "CmRaAAAAJ3uLnVGnWDs0uJRoN7MKkW22DjpWrVodIky3SPIQ8eUwv-JEDx8KcTuMtn-2oQ8G3XTVTTgBo4W6aGjI2Eu4o-PSHZ6WZ27HyXQq5ShShKHXkvrGRhbuN_4HmXpw377gEhBxFnXuwD3cq6whk1UF52xvGhSrGqvGejXXEpQGFUfUQoO1qmQZkw", "width": 1200}], "place_id": "ChIJ7_3e1pyrNTERLvdHb6eX5pI", "plus_code": {"compound_code": "2RGH+7Q Hanoi, Ho\u00e0n Ki\u1ebfm, Hanoi, Vietnam", "global_code": "7PH72RGH+7Q"}, "rating": 3.2, "reference": "ChIJ7_3e1pyrNTERLvdHb6eX5pI", "scope": "GOOGLE", "types": ["meal_takeaway", "restaurant", "point_of_interest", "food", "establishment"], "user_ratings_total": 5, "vicinity": "Ng\u00f5 168 H\u00e0o Nam, Ch\u1ee3 D\u1eeba"}, {"geometry": {"location": {"lat": 21.0264078, "lng": 105.8415942}, "viewport": {"northeast": {"lat": 21.0277583302915, "lng": 105.8428949802915}, "southwest": {"lat": 21.02506036970849, "lng": 105.8401970197085}}}, "icon": "https://maps.gstatic.com/mapfiles/place_api/icons/restaurant-71.png", "id": "127e810ae4332949c21dc8779cced99036ff86cb", "name": "Nh\u00e0 H\u00e0ng L\u00e0ng T\u00f4i", "photos": [{"height": 427, "html_attributions": ["<a href=\"https://maps.google.com/maps/contrib/113100333981318160162/photos\">Soottipong Winyoopradist</a>"], "photo_reference": "CmRaAAAA67Nzq4dyOgPOTn-PBnpxKH_g7vYT5vh4zaej5pgku9vcuYshxhewFZ73w7F8BWVZii6WTyCV-EIKyvX9_k9PQLZ6pH_qhw5w3GD2jmRq1J86jpsXyLz737q44RfKe2XSEhAYvBwU5CLSvLeQgKWpBUjmGhTzfyFGrqZmd6bmgIwk5ctqVF-o_A", "width": 640}], "place_id": "ChIJTdfvNJerNTERvXN1cpmlZQQ", "plus_code": {"compound_code": "2RGR+HJ Hanoi, Ho\u00e0n Ki\u1ebfm, Hanoi, Vietnam", "global_code": "7PH72RGR+HJ"}, "rating": 3.8, "reference": "ChIJTdfvNJerNTERvXN1cpmlZQQ", "scope": "GOOGLE", "types": ["restaurant", "point_of_interest", "food", "establishment"], "user_ratings_total": 55, "vicinity": "61 \u0110\u01b0\u1eddng L\u00ea Du\u1ea9n, V\u0103n Mi\u1ebfu"}, {"geometry": {"location": {"lat": 21.03036149999999, "lng": 105.8342414}, "viewport": {"northeast": {"lat": 21.0317495302915, "lng": 105.8356611802915}, "southwest": {"lat": 21.0290515697085, "lng": 105.8329632197085}}}, "icon": "https://maps.gstatic.com/mapfiles/place_api/icons/restaurant-71.png", "id": "cedd3f02cda46c6d97eafb69ba1cf82b19f64dec", "name": "Nh\u00e0 H\u00e0ng Ren", "opening_hours": {"open_now": false}, "photos": [{"height": 3024, "html_attributions": ["<a href=\"https://maps.google.com/maps/contrib/111640224156236505052/photos\">SHO FURUSAWA</a>"], "photo_reference": "CmRaAAAASFrSpRaluuTBDfGCQGGIVy84vsWuCW6uoKLPBQuVyt0RXDJ93GENuV5oZM2SitLpC-AXZ1BWaO8Ib7mAI_NOw9oFRG3yV6T7VWbskSCBBut6IIpuAvybxoYbcz6mwaoJEhAZkZnXHDxFhzGKRYXk_q-sGhRm0yJAGlY42meFAa6VPIEvnRlaWw", "width": 4032}], "place_id": "ChIJM0IwNJ-rNTERnJg3FaWsZgo", "plus_code": {"compound_code": "2RJM+4M Hanoi, Ho\u00e0n Ki\u1ebfm, Hanoi, Vietnam", "global_code": "7PH72RJM+4M"}, "rating": 4.2, "reference": "ChIJM0IwNJ-rNTERnJg3FaWsZgo", "scope": "GOOGLE", "types": ["restaurant", "point_of_interest", "food", "establishment"], "user_ratings_total": 202, "vicinity": "8A H\u00e0ng Ch\u00e1o, C\u00e1t Linh"}, {"geometry": {"location": {"lat": 21.02846899999999, "lng": 105.8345034}, "viewport": {"northeast": {"lat": 21.0297955302915, "lng": 105.8358900302915}, "southwest": {"lat": 21.0270975697085, "lng": 105.8331920697085}}}, "icon": "https://maps.gstatic.com/mapfiles/place_api/icons/restaurant-71.png", "id": "b5a5d777d3892ea49283a564254cf597ecd2db1a", "name": "Nh\u00e0 H\u00e0ng Fa 1975", "opening_hours": {"open_now": true}, "photos": [{"height": 960, "html_attributions": ["<a href=\"https://maps.google.com/maps/contrib/116000012220374024289/photos\">Tr\u1ea7n Ti\u1ebfn Th\u1eafng</a>"], "photo_reference": "CmRaAAAAbfiQv6qDAQ7e2Gg6unmlnZDodZi9CdplDYPH9mQcfRzliYdTrU5KUhPxG1oDf4QW4AJdYoYy2L-p54wGSCAfbznGdAnQJj_ICkDd9hwDb2BFqT864mcD7WCPFHhk4YnmEhAJ7_GUDtvYSrhvxmOvOjZIGhS3MCRz3Mi7UdIHouQDgu2sNR-7Yg", "width": 1280}], "place_id": "ChIJ26LdzZ6rNTER9RgB_olE47U", "plus_code": {"compound_code": "2RHM+9R Hanoi, Ho\u00e0n Ki\u1ebfm, Hanoi, Vietnam", "global_code": "7PH72RHM+9R"}, "rating": 3.8, "reference": "ChIJ26LdzZ6rNTER9RgB_olE47U", "scope": "GOOGLE", "types": ["restaurant", "point_of_interest", "food", "establishment"], "user_ratings_total": 25, "vicinity": "52 Ph\u1ed1 T\u00f4n \u0110\u1ee9c Th\u1eafng"}, {"geometry": {"location": {"lat": 21.0265673, "lng": 105.8328466}, "viewport": {"northeast": {"lat": 21.0279359302915, "lng": 105.8341432802915}, "southwest": {"lat": 21.0252379697085, "lng": 105.8314453197085}}}, "icon": "https://maps.gstatic.com/mapfiles/place_api/icons/shopping-71.png", "id": "d35cf1dfcf8e7ebf8a8e7eec7c05bc5320e51cbf", "name": "NEM N\u1eaeM B\u00c1CH GIA", "photos": [{"height": 380, "html_attributions": ["<a href=\"https://maps.google.com/maps/contrib/106182957101923382254/photos\">NEM N\u1eaeM B\u00c1CH GIA</a>"], "photo_reference": "CmRaAAAArzF-ITF8c8S4dqEeFsakrcMwKPtsckk8_atotbhs8Eaxh5fJzC1Iiv3LJQ_xCqOYvd-pw0rJDn256kNUKq3ueHElS6zRJNx3CpDYAOLH-dEtTxwpWXPT-sdcgX7wHPyAEhBns82iTGd9bhfyz_r76-5wGhTywAn96kUlMKeHVjy3LoKDPjujHw", "width": 500}], "place_id": "ChIJ02dBnZ6rNTERmTwADjtQmkU", "plus_code": {"compound_code": "2RGM+J4 Hanoi, Ho\u00e0n Ki\u1ebfm, Hanoi, Vietnam", "global_code": "7PH72RGM+J4"}, "rating": 4, "reference": "ChIJ02dBnZ6rNTERmTwADjtQmkU", "scope": "GOOGLE", "types": ["meal_delivery", "store", "health", "restaurant", "point_of_interest", "food", "establishment"], "user_ratings_total": 3, "vicinity": "61 \u0110\u1eb7ng Tr\u1ea7n C\u00f4n"}, {"geometry": {"location": {"lat": 21.0277644, "lng": 105.8341598}, "viewport": {"northeast": {"lat": 21.0291290802915, "lng": 105.8355237302915}, "southwest": {"lat": 21.0264311197085, "lng": 105.8328257697085}}}, "icon": "https://maps.gstatic.com/mapfiles/place_api/icons/lodging-71.png", "id": "a0bf756fb294e09cb0baf3e05f4efeda799489e8", "name": "Kh\u00e1ch S\u1ea1n V\u1ea1n L\u1ee3i", "place_id": "ChIJM08euJ6rNTERzxZ45OfyaL0", "rating": 2.8, "reference": "ChIJM08euJ6rNTERzxZ45OfyaL0", "scope": "GOOGLE", "types": ["lodging", "restaurant", "point_of_interest", "food", "establishment"], "user_ratings_total": 4, "vicinity": "Xuy\u00ean Trung, C\u1ea9m Nam, Qu\u1ed1c T\u1eed Gi\u00e1m"}, {"geometry": {"location": {"lat": 21.0277644, "lng": 105.8341598}, "viewport": {"northeast": {"lat": 21.0291290802915, "lng": 105.8355237302915}, "southwest": {"lat": 21.0264311197085, "lng": 105.8328257697085}}}, "icon": "https://maps.gstatic.com/mapfiles/place_api/icons/restaurant-71.png", "id": "6428caf75982d85fef73bff819612412c121fdfa", "name": "qua\u0301n coffee Lyly", "place_id": "ChIJM08euJ6rNTERy0Y_gE4cJHo", "plus_code": {"compound_code": "2RHM+4M Hanoi, Ho\u00e0n Ki\u1ebfm, Hanoi, Vietnam", "global_code": "7PH72RHM+4M"}, "reference": "ChIJM08euJ6rNTERy0Y_gE4cJHo", "scope": "GOOGLE", "types": ["restaurant", "point_of_interest", "food", "establishment"], "vicinity": "Qu\u1ed1c T\u1eed Gi\u00e1m"}, {"geometry": {"location": {"lat": 21.0279466, "lng": 105.8340535}, "viewport": {"northeast": {"lat": 21.0292426802915, "lng": 105.8353727302915}, "southwest": {"lat": 21.0265447197085, "lng": 105.8326747697085}}}, "icon": "https://maps.gstatic.com/mapfiles/place_api/icons/restaurant-71.png", "id": "4ee4d59d1e545fa39408ef412f11f519e79f9cf7", "name": "Hi\u1ec7u Ch\u00e8 C\u00e1t Th\u00e0nh", "photos": [{"height": 367, "html_attributions": ["<a href=\"https://maps.google.com/maps/contrib/110963655179718178523/photos\">Nh\u1eadt V\u0169</a>"], "photo_reference": "CmRaAAAA_PE8GdtXBFjQOEkJX8xrXJ5UYvGkoDjcjkawTIfjoTZNBAZfM4YDZg_G-U_KPUCWGSrRuvady0eOgmIpM0sILs2zq5PiHhydDiJC5kXmSBwOSgP0J6Gj7gKeF6Avj_5eEhCeEEaq_wKnc3AaZRkV_aQ4GhQ3cPCRMbrnkmSfX4q_ioKRuOchFQ", "width": 552}], "place_id": "ChIJlQu-x56rNTERA5SNptjzI3M", "plus_code": {"compound_code": "2RHM+5J Hanoi, Ho\u00e0n Ki\u1ebfm, Hanoi, Vietnam", "global_code": "7PH72RHM+5J"}, "rating": 3.6, "reference": "ChIJlQu-x56rNTERA5SNptjzI3M", "scope": "GOOGLE", "types": ["restaurant", "point_of_interest", "food", "establishment"], "user_ratings_total": 35, "vicinity": "Ch\u1ee3 D\u1eeba, 2 C\u00e1t Linh"}, {"geometry": {"location": {"lat": 21.027263, "lng": 105.83398}, "viewport": {"northeast": {"lat": 21.0286168302915, "lng": 105.8353164302915}, "southwest": {"lat": 21.0259188697085, "lng": 105.8326184697085}}}, "icon": "https://maps.gstatic.com/mapfiles/place_api/icons/restaurant-71.png", "id": "1883bcd1ac62385bd992ea01f08fa74daa1aacc7", "name": "Vua Bi\u1ec3n", "opening_hours": {"open_now": true}, "photos": [{"height": 1330, "html_attributions": ["<a href=\"https://maps.google.com/maps/contrib/109815024824814396184/photos\">Sha woni</a>"], "photo_reference": "CmRaAAAA379ZjL0sTl3S1-Nwt6sBVBh-5RPYYiOyU_URa3IOv4ZZrZRCXaTWVwQkaW8jOIt0HYg00RDnhJV8ymDuVNp_eefSPqPkpmT3HI7YiwQAjX_tRcZdNVoQ8zKPCsF68AOKEhDyyMJ7IuZIVokTYmuOC0BZGhQNLVZOuMEFg4svtjhKBQRcyQlSIA", "width": 1080}], "place_id": "ChIJ2Wgdu56rNTER8jlvxHXUETE", "plus_code": {"compound_code": "2RGM+WH Hanoi, Ho\u00e0n Ki\u1ebfm, Hanoi, Vietnam", "global_code": "7PH72RGM+WH"}, "rating": 4.8, "reference": "ChIJ2Wgdu56rNTER8jlvxHXUETE", "scope": "GOOGLE", "types": ["restaurant", "point_of_interest", "food", "establishment"], "user_ratings_total": 5, "vicinity": "92 Ph\u1ed1 T\u00f4n \u0110\u1ee9c Th\u1eafng, Qu\u1ed1c T\u1eed Gi\u00e1m"}, {"geometry": {"location": {"lat": 21.0271736, "lng": 105.8340488}, "viewport": {"northeast": {"lat": 21.0285368802915, "lng": 105.8353607802915}, "southwest": {"lat": 21.02583891970849, "lng": 105.8326628197085}}}, "icon": "https://maps.gstatic.com/mapfiles/place_api/icons/restaurant-71.png", "id": "9f2e6d6fcd3af91d92fd52874f69e8fa1ec53880", "name": "B\u00e1nh X\u00e8o T\u00f4n \u0110\u1ee9c Th\u1eafng", "opening_hours": {"open_now": false}, "photos": [{"height": 300, "html_attributions": ["<a href=\"https://maps.google.com/maps/contrib/100142935588216668753/photos\">M\u00e1y Gi\u1eb7t</a>"], "photo_reference": "CmRaAAAADNcjFshYb2kj0fmw99SxNGvOWwi0kJZN7PxotU7COYiIyt_MdgkLQqq2xHF4ieRYhF9qOXm0-n_KmX6rxugsSBK2sh11ojPXRTWI90q9v5zLPfMG5QEq9T6Gj7Q8FvslEhC5V1YIhaatHGnL9mdkKWoDGhRl6hEW8AtSZzFppBLgxe8P2lNGZg", "width": 450}], "place_id": "ChIJMdRlup6rNTERpGr84PZxH5w", "plus_code": {"compound_code": "2RGM+VJ Hanoi, Ho\u00e0n Ki\u1ebfm, Hanoi, Vietnam", "global_code": "7PH72RGM+VJ"}, "rating": 4.4, "reference": "ChIJMdRlup6rNTERpGr84PZxH5w", "scope": "GOOGLE", "types": ["restaurant", "point_of_interest", "food", "establishment"], "user_ratings_total": 154, "vicinity": "29, Ph\u1ed1 T\u00f4n \u0110\u1ee9c Th\u1eafng, Qu\u1ed1c T\u1eed Gi\u00e1m"}, {"geometry": {"location": {"lat": 21.0276258, "lng": 105.8360899}, "viewport": {"northeast": {"lat": 21.0290014302915, "lng": 105.8373840302915}, "southwest": {"lat": 21.0263034697085, "lng": 105.8346860697085}}}, "icon": "https://maps.gstatic.com/mapfiles/place_api/icons/restaurant-71.png", "id": "763be6c24dd995c9e20e6f519a474198d718cab1", "name": "Koto Restaurant", "opening_hours": {"open_now": true}, "photos": [{"height": 3024, "html_attributions": ["<a href=\"https://maps.google.com/maps/contrib/108827340149452266984/photos\">Dorina Achelaritei</a>"], "photo_reference": "CmRaAAAA9k-HQBsy_aOYapBa3rAQswPyFzRBbKHOoZLu7R4ESpN3EiiYCxDhA4_16BWcGBWj9nc9JteeseeXiJQkgo-FaeYWkWWotIy6p1xpuYawTKOGK8IrlN47J7EJSAZVD4KCEhDHZZbph-Lk7tbvw6MOu9btGhTASFtlY7zOBqoOQJe3G15AlkqsZA", "width": 4032}], "place_id": "ChIJ835SP5mrNTERMHbHRl_pWzU", "plus_code": {"compound_code": "2RHP+3C Hanoi, Ho\u00e0n Ki\u1ebfm, Hanoi, Vietnam", "global_code": "7PH72RHP+3C"}, "price_level": 2, "rating": 4.3, "reference": "ChIJ835SP5mrNTERMHbHRl_pWzU", "scope": "GOOGLE", "types": ["restaurant", "point_of_interest", "food", "establishment"], "user_ratings_total": 585, "vicinity": "59 V\u0103n Mi\u1ebfu"}, {"geometry": {"location": {"lat": 21.0260501, "lng": 105.8332059}, "viewport": {"northeast": {"lat": 21.0273544802915, "lng": 105.8345984302915}, "southwest": {"lat": 21.02465651970849, "lng": 105.8319004697085}}}, "icon": "https://maps.gstatic.com/mapfiles/place_api/icons/restaurant-71.png", "id": "3bdcffb32976b503850cd596631c82a8c22cc41c", "name": "Pizza Hut", "opening_hours": {"open_now": true}, "photos": [{"height": 554, "html_attributions": ["<a href=\"https://maps.google.com/maps/contrib/100481044681351444188/photos\">nhu van</a>"], "photo_reference": "CmRaAAAAZgULdg_aWjpr7QMVcDAXUVCPnUUv5ZAUpY5NjyzqhZ-rw1FJph2yK3Irk1oPqyHsfZptKBtjBh7VaXOfonREpH7kApmc0p8fXxnQDH4y3fEZL4e7Je5c38QZQ1Gk7Qq8EhALtHcwjA-3QqhNdqiIGdGCGhTrRKF6cFpBNZdWtI5ZCsvjpJ9P0Q", "width": 554}], "place_id": "ChIJP1IuIpyrNTERfIEakrRt4r0", "plus_code": {"compound_code": "2RGM+C7 Hanoi, Ho\u00e0n Ki\u1ebfm, Hanoi, Vietnam", "global_code": "7PH72RGM+C7"}, "price_level": 2, "rating": 4.1, "reference": "ChIJP1IuIpyrNTERfIEakrRt4r0", "scope": "GOOGLE", "types": ["restaurant", "point_of_interest", "food", "establishment"], "user_ratings_total": 297, "vicinity": "138 Ph\u1ed1 T\u00f4n \u0110\u1ee9c Th\u1eafng, Qu\u1ed1c T\u1eed Gi\u00e1m"}, {"geometry": {"location": {"lat": 21.0259668, "lng": 105.8331487}, "viewport": {"northeast": {"lat": 21.0273136802915, "lng": 105.8344966302915}, "southwest": {"lat": 21.0246157197085, "lng": 105.8317986697085}}}, "icon": "https://maps.gstatic.com/mapfiles/place_api/icons/restaurant-71.png", "id": "70ffed7cb85c6b0722668fc803aa168b09dfa395", "name": "Nh\u00e0 H\u00e0ng Ozzie'S Bistro", "photos": [{"height": 2268, "html_attributions": ["<a href=\"https://maps.google.com/maps/contrib/109626600409326110387/photos\">Nguyen Hoang Duy</a>"], "photo_reference": "CmRaAAAAR8GokxYBol2nfcdoo_bhKzIazgRCGBVCEAIgckEzopL6K_3rSnFo40zoJzI7gMHSWbz5NjahEIwv24U2bJwP4dTN6UpMcL94pW1lD025ghmZ8AhWqHzGi0yHfRna50UnEhCi01p4vCrEvjgiVu3sP2wgGhQBSlAHOFTwqvuzfUxZ4fMKE6-bHQ", "width": 4032}], "place_id": "ChIJ2zK-JJyrNTERIC5kYHgTYXk", "plus_code": {"compound_code": "2RGM+97 Hanoi, Ho\u00e0n Ki\u1ebfm, Hanoi, Vietnam", "global_code": "7PH72RGM+97"}, "rating": 4.3, "reference": "ChIJ2zK-JJyrNTERIC5kYHgTYXk", "scope": "GOOGLE", "types": ["restaurant", "point_of_interest", "food", "establishment"], "user_ratings_total": 8, "vicinity": "5 \u0110o\u00e0n Th\u1ecb \u0110i\u1ec3m, Qu\u1ed1c T\u1eed Gi\u00e1m"}, {"geometry": {"location": {"lat": 21.0270837, "lng": 105.832051}, "viewport": {"northeast": {"lat": 21.0284236802915, "lng": 105.8334255802915}, "southwest": {"lat": 21.0257257197085, "lng": 105.8307276197085}}}, "icon": "https://maps.gstatic.com/mapfiles/place_api/icons/restaurant-71.png", "id": "58b206a80e4e043af1938ef98cf19c08121beae4", "name": "Qu\u00e1n Mi\u1ebfn Ngan", "opening_hours": {"open_now": false}, "photos": [{"height": 4032, "html_attributions": ["<a href=\"https://maps.google.com/maps/contrib/108379598312256503560/photos\">Anh Duy</a>"], "photo_reference": "CmRaAAAANKXz3myeieX-z7rt1d-fRdhlBp5IQVfxmZc0vZTqFDA1-NDICWvpHPs6LmyTUhe3X-ATPRu_I0FW9-EUHVCwTOssces4omeAf6wVg5TDx-qZ-WTDUKmkb-ovQTfYwMnrEhAOD9Yg7aX5-r096d3LFvBPGhSJDKOLY0kvk6vtwhx8SZhVOT13KQ", "width": 3024}], "place_id": "ChIJCxZth56rNTERLk-IBSv4shM", "plus_code": {"compound_code": "2RGJ+RR Hanoi, Ho\u00e0n Ki\u1ebfm, Hanoi, Vietnam", "global_code": "7PH72RGJ+RR"}, "rating": 4.3, "reference": "ChIJCxZth56rNTERLk-IBSv4shM", "scope": "GOOGLE", "types": ["restaurant", "point_of_interest", "food", "establishment"], "user_ratings_total": 8, "vicinity": "11 B\u00edch C\u00e2u, Qu\u1ed1c T\u1eed Gi\u00e1m"}, {"geometry": {"location": {"lat": 21.025894, "lng": 105.833171}, "viewport": {"northeast": {"lat": 21.0272280302915, "lng": 105.8345592302915}, "southwest": {"lat": 21.0245300697085, "lng": 105.8318612697085}}}, "icon": "https://maps.gstatic.com/mapfiles/place_api/icons/restaurant-71.png", "id": "056301d93f0ca9dac183a37d33ce9baa0eeb0ae0", "name": "Paris Gateaux", "opening_hours": {"open_now": true}, "photos": [{"height": 3024, "html_attributions": ["<a href=\"https://maps.google.com/maps/contrib/115166471982785573262/photos\">Thao Nguyen</a>"], "photo_reference": "CmRaAAAAX6aL_9kM2lKHg8sMreESlQAESWKzgg31GPhjKIfCPbnTC99AZ3rFfrr1ixbmV1AtxHLUNxKDUX6M0vO167t5gXsE3duZp14FrgvhMo-LOh5sT7T_ip4yVRkCzzSUiv7iEhBzAe8Osq4V1pa-4q8OfdCTGhTP7ZdjkaQ7qsVX8b4HB_9faT92QQ", "width": 3024}], "place_id": "ChIJ74Jkpp6rNTERgsqBD7Kgk2U", "plus_code": {"compound_code": "2RGM+97 Hanoi, Ho\u00e0n Ki\u1ebfm, Hanoi, Vietnam", "global_code": "7PH72RGM+97"}, "price_level": 2, "rating": 4.6, "reference": "ChIJ74Jkpp6rNTERgsqBD7Kgk2U", "scope": "GOOGLE", "types": ["restaurant", "point_of_interest", "food", "establishment"], "user_ratings_total": 19, "vicinity": "140 Ph\u1ed1 T\u00f4n \u0110\u1ee9c Th\u1eafng, Qu\u1ed1c T\u1eed Gi\u00e1m"}, {"geometry": {"location": {"lat": 21.026896, "lng": 105.836193}, "viewport": {"northeast": {"lat": 21.02827188029151, "lng": 105.8375580302915}, "southwest": {"lat": 21.0255739197085, "lng": 105.8348600697085}}}, "icon": "https://maps.gstatic.com/mapfiles/place_api/icons/restaurant-71.png", "id": "5b1f3a6ee964d659a4b14cc3eb5e802aedaddbab", "name": "Le Hanoi Gourmet", "opening_hours": {"open_now": true}, "photos": [{"height": 3024, "html_attributions": ["<a href=\"https://maps.google.com/maps/contrib/114320108974128204231/photos\">David Meyer</a>"], "photo_reference": "CmRaAAAA5-kmuSLxZaINq09Xc3QD4gpHDqk6QWJDqICMxCcDyZVlPDOHOOzspCM4BU_LHK1d5YNuDj2bw3dMtUNiDM755xB4DDpeEqvfopecWD1taTTWzQPmg2BcwmuEVBqw36WPEhCUYM-sB_37LphRq6WoFS4wGhTW5D-blC86yTyfHR3p9gBWYS5s4g", "width": 4032}], "place_id": "ChIJT5YpXZmrNTERUZjz_s42feg", "plus_code": {"compound_code": "2RGP+QF Hanoi, Ho\u00e0n Ki\u1ebfm, Hanoi, Vietnam", "global_code": "7PH72RGP+QF"}, "rating": 4.5, "reference": "ChIJT5YpXZmrNTERUZjz_s42feg", "scope": "GOOGLE", "types": ["restaurant", "point_of_interest", "food", "establishment"], "user_ratings_total": 8, "vicinity": "51 Qu\u1ed1c T\u1eed Gi\u00e1m, V\u0103n Ch\u01b0\u01a1ng"}, {"geometry": {"location": {"lat": 21.0262584, "lng": 105.8324771}, "viewport": {"northeast": {"lat": 21.0276054302915, "lng": 105.8338251802915}, "southwest": {"lat": 21.0249074697085, "lng": 105.8311272197085}}}, "icon": "https://maps.gstatic.com/mapfiles/place_api/icons/restaurant-71.png", "id": "3bea5ba9255398aa1725ab6d49cd96943308233d", "name": "Th\u1ecbt D\u00ea N\u00fai D\u1ee7 M\u00f3n", "photos": [{"height": 400, "html_attributions": ["<a href=\"https://maps.google.com/maps/contrib/100753618806452965254/photos\">Rung Lan</a>"], "photo_reference": "CmRaAAAA7G8vwuXDFA7stxUGMSwhQ7KLZJqWXEee7EQJM93VcWBjn3bTyTd5K6vam3AIBEa-ymvz8t2zWtpuwjqMt896ao-S09uP50y-duxmYGo7OHYYvQXpPrblWln-sHIKjS7PEhAxT4Ek6dS1lMTPUZa2VivJGhR9olRVIsF-pwyX4ux6mepZBJPYKA", "width": 400}], "place_id": "ChIJ1boHLJyrNTERBpPlpCm6078", "plus_code": {"compound_code": "2RGJ+GX Hanoi, Ho\u00e0n Ki\u1ebfm, Hanoi, Vietnam", "global_code": "7PH72RGJ+GX"}, "rating": 4, "reference": "ChIJ1boHLJyrNTERBpPlpCm6078", "scope": "GOOGLE", "types": ["restaurant", "point_of_interest", "food", "establishment"], "user_ratings_total": 3, "vicinity": "25 \u0110o\u00e0n Th\u1ecb \u0110i\u1ec3m, Qu\u1ed1c T\u1eed Gi\u00e1m"}, {"geometry": {"location": {"lat": 21.02562799999999, "lng": 105.8333}, "viewport": {"northeast": {"lat": 21.0269853302915, "lng": 105.8346282302915}, "southwest": {"lat": 21.0242873697085, "lng": 105.8319302697085}}}, "icon": "https://maps.gstatic.com/mapfiles/place_api/icons/restaurant-71.png", "id": "02a40a606266c4e67636890b8a4d011c03fd8799", "name": "Le Grape Principal", "opening_hours": {"open_now": true}, "photos": [{"height": 800, "html_attributions": ["<a href=\"https://maps.google.com/maps/contrib/110556544001797221961/photos\">\u0110\u00ecnh T\u00e2m Do\u00e3n</a>"], "photo_reference": "CmRaAAAAfI_LaDa2bjg1VRZGEe4gD_1ce1RqT9N_XEHk1_bWp3nzqiUg6PsUmfnhiclVh_C4Q61-gdOKMW6lpXLCtbXYN39ERiRq05xdLgEOlhZYrv_kfN6uvLAO_lOAG668kyqgEhDLAruuZMabY1r8mnew7n0vGhT0-KqIy31tdH5Yfq-fMVm3rJ0Pjg", "width": 1200}], "place_id": "ChIJ8Y0QPZyrNTERkNEmbobXVao", "plus_code": {"compound_code": "2RGM+78 Hanoi, Ho\u00e0n Ki\u1ebfm, Hanoi, Vietnam", "global_code": "7PH72RGM+78"}, "rating": 4.8, "reference": "ChIJ8Y0QPZyrNTERkNEmbobXVao", "scope": "GOOGLE", "types": ["restaurant", "point_of_interest", "food", "establishment"], "user_ratings_total": 5, "vicinity": "73 Ph\u1ed1 T\u00f4n \u0110\u1ee9c Th\u1eafng, Qu\u1ed1c T\u1eed Gi\u00e1m"}, {"geometry": {"location": {"lat": 21.0288542, "lng": 105.8318068}, "viewport": {"northeast": {"lat": 21.0302029302915, "lng": 105.8331564802915}, "southwest": {"lat": 21.0275049697085, "lng": 105.8304585197085}}}, "icon": "https://maps.gstatic.com/mapfiles/place_api/icons/restaurant-71.png", "id": "4346823201ccb75247a44252a7400c19a38bdde9", "name": "The Hawker", "opening_hours": {"open_now": true}, "photos": [{"height": 542, "html_attributions": ["<a href=\"https://maps.google.com/maps/contrib/100707390304945892381/photos\">\u0110\u1ee9c Nguy\u1ec5n</a>"], "photo_reference": "CmRaAAAAn-1jmXk1yw_szOZ-i1WOdqpxRshrMwvnDu3To0V1cKWlQqVVJF2J60d-PQM2Fb3AxnYt9Wv8Rfg0zXMeM7DbxdnLvN1TydRSIcuIw5O2YfUQBMGrtutPCWOrGF0u9K7kEhChmVKPUUerOy7HJ7qgmgaBGhTNVJZ0bwmJw2x8N7cz-pVZUmTp8g", "width": 960}], "place_id": "ChIJg08wD1-rNTERAHnJpyIFa4Q", "plus_code": {"compound_code": "2RHJ+GP Hanoi, Ho\u00e0n Ki\u1ebfm, Hanoi, Vietnam", "global_code": "7PH72RHJ+GP"}, "rating": 3.9, "reference": "ChIJg08wD1-rNTERAHnJpyIFa4Q", "scope": "GOOGLE", "types": ["restaurant", "point_of_interest", "food", "establishment"], "user_ratings_total": 21, "vicinity": "16 Tr\u1ecbnh Ho\u00e0i \u0110\u1ee9c, C\u00e1t Linh"}, {"geometry": {"location": {"lat": 21.028811, "lng": 105.83657}, "viewport": {"northeast": {"lat": 21.0301743302915, "lng": 105.8378760302915}, "southwest": {"lat": 21.0274763697085, "lng": 105.8351780697085}}}, "icon": "https://maps.gstatic.com/mapfiles/place_api/icons/restaurant-71.png", "id": "9205b3f66db1401c328bb067ef824bfdeecadae1", "name": "Cafe V\u0103n Mi\u1ebfu", "opening_hours": {"open_now": true}, "photos": [{"height": 640, "html_attributions": ["<a href=\"https://maps.google.com/maps/contrib/103827884545454285446/photos\">Cafe V\u0103n Mi\u1ebfu</a>"], "photo_reference": "CmRaAAAAfQPg2GPCKb4-MIsJBgLabSouUt0NDBdgcjoElBXx58iQe02-ArhJQ5swvvksH3tThCKE6pYVUHlfppZxPEKI_U_LJefJlIh8UFUBT_vY-tTsE3qfc4aLjgY_tWI4hStxEhClgR2ak9RJ6E5Mhf7T51n8GhRGNPj0_yzCOjBZBpFp6IN5MNkp_g", "width": 960}], "place_id": "ChIJN7jeHpmrNTERbNZVxRk2YMs", "plus_code": {"compound_code": "2RHP+GJ Hanoi, Ho\u00e0n Ki\u1ebfm, Hanoi, Vietnam", "global_code": "7PH72RHP+GJ"}, "rating": 4.3, "reference": "ChIJN7jeHpmrNTERbNZVxRk2YMs", "scope": "GOOGLE", "types": ["restaurant", "point_of_interest", "food", "establishment"], "user_ratings_total": 76, "vicinity": "150 Nguy\u1ec5n Khuy\u1ebfn (Ng\u00e3 3 Nguy\u1ec5n Khuy\u1ebfn - V\u0103n Mi\u1ebfu), V\u0103n Mi\u1ebfu"}, {"geometry": {"location": {"lat": 21.0264526, "lng": 105.836438}, "viewport": {"northeast": {"lat": 21.0279491302915, "lng": 105.8378752302915}, "southwest": {"lat": 21.0252511697085, "lng": 105.8351772697085}}}, "icon": "https://maps.gstatic.com/mapfiles/place_api/icons/restaurant-71.png", "id": "874d699b1e8165d738befd388cd10bdadfbfff72", "name": "N\u01b0\u01a1ng B\u1eafc M\u00f3n Ngon H\u00e0 N\u1ed9i", "photos": [{"height": 2560, "html_attributions": ["<a href=\"https://maps.google.com/maps/contrib/103579669706819225607/photos\">Linda E</a>"], "photo_reference": "CmRaAAAAcwWOLBUUryvRxhwQviHcViiWg8YDq77-jjYicaTe-GevBJu__JtVild04PQgQL7mVyMh5sDqwzwaawPDBGBOiC3kyiVhuvLHxEZKk3mcbpoC1ixIGjOVU_HOBngal9wjEhBh6EO7qbMjkYVLAoZ7-rolGhQHWpvmWtp6z5uf7hz1JIMxQqmo2w", "width": 1440}], "place_id": "ChIJWwq-YJmrNTERYmq8sU-j2fY", "plus_code": {"compound_code": "2RGP+HH Hanoi, Ho\u00e0n Ki\u1ebfm, Hanoi, Vietnam", "global_code": "7PH72RGP+HH"}, "rating": 4.3, "reference": "ChIJWwq-YJmrNTERYmq8sU-j2fY", "scope": "GOOGLE", "types": ["restaurant", "point_of_interest", "food", "establishment"], "user_ratings_total": 3, "vicinity": "27I Qu\u1ed1c T\u1eed Gi\u00e1m, V\u0103n Ch\u01b0\u01a1ng"}, {"geometry": {"location": {"lat": 21.0253172, "lng": 105.8332206}, "viewport": {"northeast": {"lat": 21.0266870802915, "lng": 105.8345171302915}, "southwest": {"lat": 21.0239891197085, "lng": 105.8318191697085}}}, "icon": "https://maps.gstatic.com/mapfiles/place_api/icons/restaurant-71.png", "id": "3a45043f732a1798a40b394d82ef0db399f05c8c", "name": "Nh\u00e0 H\u00e0ng Ti\u1ec7c C\u01b0\u1edbi Cung \u0110\u00ecnh", "photos": [{"height": 320, "html_attributions": ["<a href=\"https://maps.google.com/maps/contrib/106530359330473170595/photos\">Trung Nguyen</a>"], "photo_reference": "CmRaAAAAfs5YBYkLsUuleF_ZGVAxVqGXPpBFuP1OerUNYRZmeD-H8xqhFnNePbrX9Gj6ayobxK2JDhkg2uVt84TExErkWmYzyZCVkkIWwWDOTDeDEGMeivUX9MgAg-NT9cx3OMIuEhBNel1ThRNWYO1I8QqWrrSrGhToMaAvZ5GgE3KYWNXj7nGYk4aadA", "width": 551}], "place_id": "ChIJpY6WPpyrNTERA2FE4lvZJNY", "plus_code": {"compound_code": "2RGM+47 Hanoi, Ho\u00e0n Ki\u1ebfm, Hanoi, Vietnam", "global_code": "7PH72RGM+47"}, "rating": 3.6, "reference": "ChIJpY6WPpyrNTERA2FE4lvZJNY", "scope": "GOOGLE", "types": ["restaurant", "point_of_interest", "food", "establishment"], "user_ratings_total": 53, "vicinity": "85 Ph\u1ed1 T\u00f4n \u0110\u1ee9c Th\u1eafng, Qu\u1ed1c T\u1eed Gi\u00e1m"}, {"geometry": {"location": {"lat": 21.0254956, "lng": 105.8327664}, "viewport": {"northeast": {"lat": 21.0268028302915, "lng": 105.8340961802915}, "southwest": {"lat": 21.0241048697085, "lng": 105.8313982197085}}}, "icon": "https://maps.gstatic.com/mapfiles/place_api/icons/restaurant-71.png", "id": "dd12a8fb3c54c87c1ec01190a37c6ffbfe3ac4b0", "name": "Nh\u00e0 h\u00e0ng L\u1ea9u D\u00ednh", "opening_hours": {"open_now": true}, "photos": [{"height": 1152, "html_attributions": ["<a href=\"https://maps.google.com/maps/contrib/116813314219417040240/photos\">Hieu Vu</a>"], "photo_reference": "CmRaAAAArsrIdMEhpQm8SlMZM7BK4CxNSZmPUUiBF85gu20rymdHHDXSZvZHqaSZzczP3G4p4_M96KWicGa7FCgMd5oAlda0O0JRCLaqqucSbUfEgYw309fZ9K8oJ3vLVfVeHGNEEhB9oPWUtVILyefpF0EJWpE6GhSeU9wqnl1ul7Y0ga69WyR3HttHSw", "width": 2048}], "place_id": "ChIJuXxmOZyrNTER1iJijkLrLFw", "plus_code": {"compound_code": "2RGM+54 Hanoi, Ho\u00e0n Ki\u1ebfm, Hanoi, Vietnam", "global_code": "7PH72RGM+54"}, "price_level": 2, "rating": 3.9, "reference": "ChIJuXxmOZyrNTER1iJijkLrLFw", "scope": "GOOGLE", "types": ["restaurant", "point_of_interest", "food", "establishment"], "user_ratings_total": 55, "vicinity": "2 Phan V\u0103n Tr\u1ecb, Qu\u1ed1c T\u1eed Gi\u00e1m"}, {"geometry": {"location": {"lat": 21.0267183, "lng": 105.8314405}, "viewport": {"northeast": {"lat": 21.0280856802915, "lng": 105.8327973802915}, "southwest": {"lat": 21.0253877197085, "lng": 105.8300994197085}}}, "icon": "https://maps.gstatic.com/mapfiles/place_api/icons/restaurant-71.png", "id": "1522388955969c6c62a7b162e0e26ef91020eb23", "name": "Qu\u00e1n Ph\u1edf R\u00e1n C\u00e2y Si", "photos": [{"height": 720, "html_attributions": ["<a href=\"https://maps.google.com/maps/contrib/101626687580533151306/photos\">Vietrans C\u00f4ng ty D\u1ecbch thu\u1eadt</a>"], "photo_reference": "CmRaAAAArCj1rWG6Bi1wQYbQ5BMQiWmd5Zpc0Jeju_fpil79a-OgSclHFUc4sone_syktOi6ZkQk5ZLbfrtlg6z_H3EQBTUUeb5b0H_y7vYodsG7SheBjRFT_iBkeVdm2Vs5dsqoEhBSQx95-H_yQq8umeUcx-ssGhQ_nWfKXe7yhsEeqM28yXX135sbPg", "width": 960}], "place_id": "ChIJbaiOeJ6rNTERg_RqonGIiQ8", "plus_code": {"compound_code": "2RGJ+MH Hanoi, Ho\u00e0n Ki\u1ebfm, Hanoi, Vietnam", "global_code": "7PH72RGJ+MH"}, "rating": 4.3, "reference": "ChIJbaiOeJ6rNTERg_RqonGIiQ8", "scope": "GOOGLE", "types": ["restaurant", "point_of_interest", "food", "establishment"], "user_ratings_total": 14, "vicinity": "61, \u0110o\u00e0n Th\u1ecb \u0110i\u1ec3m, Ph\u01b0\u1eddng Qu\u1ed1c T\u1eed Gi\u00e1m, Qu\u1eadn \u0110\u1ed1ng \u0110a, Qu\u1ed1c T\u1eed Gi\u00e1m"}, {"geometry": {"location": {"lat": 21.0284104, "lng": 105.8372802}, "viewport": {"northeast": {"lat": 21.0298637802915, "lng": 105.8386497802915}, "southwest": {"lat": 21.02716581970849, "lng": 105.8359518197085}}}, "icon": "https://maps.gstatic.com/mapfiles/place_api/icons/restaurant-71.png", "id": "6ab09d3d1b99a697de18629f57e79e21c2ad50bb", "name": "Qu\u00e1n S\u01a1n V\u1ecbt", "photos": [{"height": 720, "html_attributions": ["<a href=\"https://maps.google.com/maps/contrib/105933469473376581442/photos\">thai hong</a>"], "photo_reference": "CmRZAAAA8Q9dzOWRFRw6Ly-omcjM3jK8gftLEdubSGmWmWvK4TFYoQI56zsAu2gFSOPxekDiCkfyZSqi2_XxxCxzBvbzomMI5fALfcaiP26vSJOtzVpbJ0hFJ95ZqsJySqwulL-bEhCNnkJujHyN2ikMHhxGPlGcGhTUlbIO1rgb1wHbXZ5PMdbZyM192Q", "width": 960}], "place_id": "ChIJPcAHBZmrNTERx6QUJyYlWOM", "plus_code": {"compound_code": "2RHP+9W Hanoi, Ho\u00e0n Ki\u1ebfm, Hanoi, Vietnam", "global_code": "7PH72RHP+9W"}, "rating": 5, "reference": "ChIJPcAHBZmrNTERx6QUJyYlWOM", "scope": "GOOGLE", "types": ["restaurant", "point_of_interest", "food", "establishment"], "user_ratings_total": 1, "vicinity": "133 Ph\u1ed1 Nguy\u1ec5n Khuy\u1ebfn, V\u0103n Mi\u1ebfu"}, {"geometry": {"location": {"lat": 21.029722, "lng": 105.8369181}, "viewport": {"northeast": {"lat": 21.0310831302915, "lng": 105.8382232302915}, "southwest": {"lat": 21.0283851697085, "lng": 105.8355252697085}}}, "icon": "https://maps.gstatic.com/mapfiles/place_api/icons/restaurant-71.png", "id": "1e3192b3881241260013af6256f27458f1e7b19d", "name": "Nh\u00e0 h\u00e0ng M\u00f3n Hu\u1ebf", "opening_hours": {"open_now": true}, "photos": [{"height": 4032, "html_attributions": ["<a href=\"https://maps.google.com/maps/contrib/102264800376828548714/photos\">hui seo</a>"], "photo_reference": "CmRaAAAA2Mx70BcWdEgnxtIb9Bn9ahO7uFQ0DyR_eNDuP9xTrRh6k7i_AtJGExPu6Emrgdd4J_56GbYoJzxGxnJaTOQUWL8T5Hhk3-aG1Jds7lNjTiB6mN5VVnMZ3IEA4rNcL02sEhB3BSiVc0T1EMgemb5HvnmqGhQqbGbmrvvbt0QikQJ2WYWYSnplRA", "width": 3024}], "place_id": "ChIJ8fO15ZirNTERyRn5gyww1fY", "plus_code": {"compound_code": "2RHP+VQ Hanoi, Ho\u00e0n Ki\u1ebfm, Hanoi, Vietnam", "global_code": "7PH72RHP+VQ"}, "price_level": 2, "rating": 3.7, "reference": "ChIJ8fO15ZirNTERyRn5gyww1fY", "scope": "GOOGLE", "types": ["restaurant", "point_of_interest", "food", "establishment"], "user_ratings_total": 83, "vicinity": "9 V\u0103n Mi\u1ebfu"}, {"geometry": {"location": {"lat": 21.0297623, "lng": 105.8369412}, "viewport": {"northeast": {"lat": 21.0311252302915, "lng": 105.8382419802915}, "southwest": {"lat": 21.0284272697085, "lng": 105.8355440197085}}}, "icon": "https://maps.gstatic.com/mapfiles/place_api/icons/restaurant-71.png", "id": "0ef18fa9c5aa35ad42dc1e4909a38ff7371b870a", "name": "Ph\u1edf \u00d4ng H\u00f9ng", "photos": [{"height": 960, "html_attributions": ["<a href=\"https://maps.google.com/maps/contrib/112172197742947277352/photos\">\uae40\uc9c4\ud638</a>"], "photo_reference": "CmRaAAAAgRxdqntTbtY8EmQt9L0uWMotY1dgQtFd-JJ2JbzWK3bqVVtLllhn7EC61MKrljqkSO7Q49AUQ_bFdUuUi7TRyZtLskLWr6JxSEcfErnj1AlImvHyoYgLKFTLZ7rMkIVqEhB1Fxt2JQ-v66LSU7eFATKaGhTvYQd_jg4WXO5MsPmXlB6opBdzDg", "width": 720}], "place_id": "ChIJDdmq6JirNTERepcGT78Cs3w", "plus_code": {"compound_code": "2RHP+WQ Hanoi, Ho\u00e0n Ki\u1ebfm, Hanoi, Vietnam", "global_code": "7PH72RHP+WQ"}, "rating": 2.9, "reference": "ChIJDdmq6JirNTERepcGT78Cs3w", "scope": "GOOGLE", "types": ["restaurant", "point_of_interest", "food", "establishment"], "user_ratings_total": 16, "vicinity": "5 V\u0103n Mi\u1ebfu"}, {"geometry": {"location": {"lat": 21.0297915, "lng": 105.836963}, "viewport": {"northeast": {"lat": 21.0311560302915, "lng": 105.8382582302915}, "southwest": {"lat": 21.0284580697085, "lng": 105.8355602697085}}}, "icon": "https://maps.gstatic.com/mapfiles/place_api/icons/restaurant-71.png", "id": "3e64cd76d62dd28f0639057c9fb9a295ebcab46d", "name": "Nh\u00e0 h\u00e0ng Nh\u1eadt B\u1ea3n AKAARI", "opening_hours": {"open_now": true}, "photos": [{"height": 1000, "html_attributions": ["<a href=\"https://maps.google.com/maps/contrib/114515364192147827634/photos\">H\u01b0\u01a1ng Giang Hana</a>"], "photo_reference": "CmRaAAAA2hqibgCrrZazgVhGV6O2NMzgJ6_BmVwQokEVLASpqmNlJbp0mmwnups8qGqzGFqMIf7CwcLUUHE69xL5XdeHclJCB1n-NRz8KUFwkY49DDv_QsDxw15hBho3yKJ0KcDdEhAtYbW_haeOPhmTWfbzfj5TGhRr0flOE0bfRoRMa9vlGQ5Ff13O5Q", "width": 1500}], "place_id": "ChIJnyIE8KGsNTERcaeWUFQ74Qg", "plus_code": {"compound_code": "2RHP+WQ Hanoi, Ho\u00e0n Ki\u1ebfm, Hanoi, Vietnam", "global_code": "7PH72RHP+WQ"}, "rating": 4.2, "reference": "ChIJnyIE8KGsNTERcaeWUFQ74Qg", "scope": "GOOGLE", "types": ["restaurant", "point_of_interest", "food", "establishment"], "user_ratings_total": 87, "vicinity": "5 V\u0103n Mi\u1ebfu"}, {"geometry": {"location": {"lat": 21.0261685, "lng": 105.8375145}, "viewport": {"northeast": {"lat": 21.0275588802915, "lng": 105.8388883802915}, "southwest": {"lat": 21.0248609197085, "lng": 105.8361904197085}}}, "icon": "https://maps.gstatic.com/mapfiles/place_api/icons/restaurant-71.png", "id": "15524784b333de9fa272dc978cce0f0696192ab6", "name": "Let\u2019sushi - Sushi online \u0111\u1ea7u ti\u00ean t\u1ea1i h\u00e0 n\u1ed9i", "opening_hours": {"open_now": true}, "photos": [{"height": 2992, "html_attributions": ["<a href=\"https://maps.google.com/maps/contrib/110885567138571424734/photos\">Nguyen Minh Hai</a>"], "photo_reference": "CmRaAAAAg0ZYWRjJbsTQTYy2mZLym6rf3XCXWJgaEojgW_7jgqg1NSAHIXb5QM6yjVPZhF_82FZUZH7kBv-R72wJU05h7OnKwZf-mUxNblHISJUT-lxp2XMlt79AosfoR1Dr7IzmEhAbAgSe5SrlStc4iA7NXinOGhT-w9IFuCUDQzWvP2FjKfHCzI9Kvw", "width": 5312}], "place_id": "ChIJg2dmfpmrNTERN_mbYOjazBE", "plus_code": {"compound_code": "2RGQ+F2 Hanoi, Ho\u00e0n Ki\u1ebfm, Hanoi, Vietnam", "global_code": "7PH72RGQ+F2"}, "price_level": 2, "rating": 4, "reference": "ChIJg2dmfpmrNTERN_mbYOjazBE", "scope": "GOOGLE", "types": ["restaurant", "point_of_interest", "food", "establishment"], "user_ratings_total": 105, "vicinity": "13b Qu\u1ed1c T\u1eed Gi\u00e1m, V\u0103n Ch\u01b0\u01a1ng"}, {"geometry": {"location": {"lat": 21.0262122, "lng": 105.8375417}, "viewport": {"northeast": {"lat": 21.0275725302915, "lng": 105.8388974802915}, "southwest": {"lat": 21.0248745697085, "lng": 105.8361995197085}}}, "icon": "https://maps.gstatic.com/mapfiles/place_api/icons/restaurant-71.png", "id": "58daf3449323543b43493dab5b462f35b34c4873", "name": "Cela Salad", "place_id": "ChIJ7RJmfpmrNTERW6TrGHWnc-Y", "plus_code": {"compound_code": "2RGQ+F2 Hanoi, Ho\u00e0n Ki\u1ebfm, Hanoi, Vietnam", "global_code": "7PH72RGQ+F2"}, "reference": "ChIJ7RJmfpmrNTERW6TrGHWnc-Y", "scope": "GOOGLE", "types": ["restaurant", "point_of_interest", "food", "establishment"], "vicinity": "Ng\u00f5 56 Ng\u00f4 S\u1ef9 Li\u00ean, V\u0103n Ch\u01b0\u01a1ng"}, {"geometry": {"location": {"lat": 21.0299895, "lng": 105.8372188}, "viewport": {"northeast": {"lat": 21.0313724302915, "lng": 105.8385792802915}, "southwest": {"lat": 21.02867446970849, "lng": 105.8358813197085}}}, "icon": "https://maps.gstatic.com/mapfiles/place_api/icons/restaurant-71.png", "id": "b6847bba0266fd13cfb58085caf901accec4d55a", "name": "Hanoi Pizza Home", "opening_hours": {"open_now": true}, "photos": [{"height": 2592, "html_attributions": ["<a href=\"https://maps.google.com/maps/contrib/102182380240041475206/photos\">Hieu Giang</a>"], "photo_reference": "CmRaAAAAhqNkLYpVjJ9A--L0hPE41zZbL0ZTQ8gJjWZ1f63TTxRqFzpL8d3Kt0JCJC8u72_v551lDkFxRgwDmfufsF7oOQqfGtDgVCqGId2PfJ56YZlf7tplgd7yDNPCyBG6icHgEhDL_d-MJcnLPwyEjnZSqN47GhTWDgx9dK5fIQ6Al7cwmC1KiK7uvQ", "width": 4608}], "place_id": "ChIJ39298ZirNTERx6bRL9TyT_k", "plus_code": {"compound_code": "2RHP+XV Hanoi, Ho\u00e0n Ki\u1ebfm, Hanoi, Vietnam", "global_code": "7PH72RHP+XV"}, "rating": 3.4, "reference": "ChIJ39298ZirNTERx6bRL9TyT_k", "scope": "GOOGLE", "types": ["restaurant", "point_of_interest", "food", "establishment"], "user_ratings_total": 9, "vicinity": "129 Ph\u1ed1 Nguy\u1ec5n Th\u00e1i H\u1ecdc, V\u0103n Mi\u1ebfu"}, {"geometry": {"location": {"lat": 21.030476, "lng": 105.83798}, "viewport": {"northeast": {"lat": 21.03177468029151, "lng": 105.8393304302915}, "southwest": {"lat": 21.0290767197085, "lng": 105.8366324697085}}}, "icon": "https://maps.gstatic.com/mapfiles/place_api/icons/restaurant-71.png", "id": "3e33d291f92e2bc162912cefb8c1e60a2b5af72d", "name": "Pincho - Tapas Kitchen and Drinks", "opening_hours": {"open_now": true}, "photos": [{"height": 1536, "html_attributions": ["<a href=\"https://maps.google.com/maps/contrib/102551724493731801900/photos\">Explore Feel Good</a>"], "photo_reference": "CmRaAAAAWgpaSNahIMVpkj3REoJFBP8wUN9j_w9G7gnU1YZfLzSn2oPhspUIHaIadVabQuCcKa0c-r71cQHviJy92rDHH23olZ_Nzfq8rFoBFjC4yM5Dfk0rBa4Pi-bgRFanJ2TNEhDMf1DD00HSkRG9NSNGMXn1GhSgRwOqKlw-N2-HQJelhcl3Ae4KRQ", "width": 2048}], "place_id": "ChIJb0wUYMCrNTERiwhauC8GSDQ", "plus_code": {"compound_code": "2RJQ+55 Hanoi, Ho\u00e0n Ki\u1ebfm, Hanoi, Vietnam", "global_code": "7PH72RJQ+55"}, "rating": 4.6, "reference": "ChIJb0wUYMCrNTERiwhauC8GSDQ", "scope": "GOOGLE", "types": ["bar", "restaurant", "point_of_interest", "food", "establishment"], "user_ratings_total": 142, "vicinity": "34C Cao B\u00e1 Qu\u00e1t, \u0110i\u1ec7n B\u00e0n"}, {"geometry": {"location": {"lat": 21.0266527, "lng": 105.8389932}, "viewport": {"northeast": {"lat": 21.0279818302915, "lng": 105.8403363302915}, "southwest": {"lat": 21.0252838697085, "lng": 105.8376383697085}}}, "icon": "https://maps.gstatic.com/mapfiles/place_api/icons/restaurant-71.png", "id": "ecca4596ee96ca42a04ad367741f6524d0416556", "name": "PIZZA 88", "opening_hours": {"open_now": true}, "photos": [{"height": 1417, "html_attributions": ["<a href=\"https://maps.google.com/maps/contrib/107170781541077129794/photos\">TH\u1eaeNG H\u1ed2</a>"], "photo_reference": "CmRaAAAAeoCNlenEzvgoaPSHuDQ2Dhl-fvsK9s77H8iBr56HAi-UgSaDEStvx8f7dySGF1RQF66NVPfwy6LnL8bRhZV5VdmGs80A3Fvb-NbVl9IsZX7FeRuFR4KdNvAMuc4mHQMeEhC9AOr9JmNjb8tjDHIQzXtVGhS8nxlPwWm_B7rD-wMYrEnMRmN4ew", "width": 2048}], "place_id": "ChIJhcn3jZmrNTER9XWQEU-je1M", "plus_code": {"compound_code": "2RGQ+MH Hanoi, Ho\u00e0n Ki\u1ebfm, Hanoi, Vietnam", "global_code": "7PH72RGQ+MH"}, "rating": 3.7, "reference": "ChIJhcn3jZmrNTER9XWQEU-je1M", "scope": "GOOGLE", "types": ["meal_takeaway", "restaurant", "point_of_interest", "food", "establishment"], "user_ratings_total": 11, "vicinity": "6 ng\u00f5, 21 Nguy\u1ec5n Nh\u01b0 \u0110\u1ed5, V\u0103n Mi\u1ebfu"}, {"geometry": {"location": {"lat": 21.030664, "lng": 105.8381567}, "viewport": {"northeast": {"lat": 21.0318701802915, "lng": 105.8394777802915}, "southwest": {"lat": 21.0291722197085, "lng": 105.8367798197085}}}, "icon": "https://maps.gstatic.com/mapfiles/place_api/icons/restaurant-71.png", "id": "e67a3d33978b20193f7ed116c007304b4759decd", "name": "Salmonoid", "opening_hours": {"open_now": false}, "photos": [{"height": 1667, "html_attributions": ["<a href=\"https://maps.google.com/maps/contrib/102509967308749365601/photos\">TO\u00c0N D\u0168NG MEDIA</a>"], "photo_reference": "CmRaAAAAiK3yqOES8nSyfeO2UpXr_MXX5yfr7i43B4INIs-yuw3G5xCh_UnErKDmaKUaCAULbayzElb7nD-xwM2lmSo7BXmDutdLV2wgsEe32S0zQocc0P0X7gRKvwtdoU2APFHrEhBI_oMHK7B4CN94f-tWiz2mGhS_UlwwXGwaYphHdU4R-psOhxFSSw", "width": 2500}], "place_id": "ChIJx4k7Z5irNTERmUGOjejWTNU", "plus_code": {"compound_code": "2RJQ+77 Hanoi, Ho\u00e0n Ki\u1ebfm, Hanoi, Vietnam", "global_code": "7PH72RJQ+77"}, "rating": 4.4, "reference": "ChIJx4k7Z5irNTERmUGOjejWTNU", "scope": "GOOGLE", "types": ["restaurant", "point_of_interest", "food", "establishment"], "user_ratings_total": 253, "vicinity": "32C Cao B\u00e1 Qu\u00e1t, \u0110i\u1ec7n B\u00e0n"}, {"geometry": {"location": {"lat": 21.0316009, "lng": 105.837135}, "viewport": {"northeast": {"lat": 21.0329508302915, "lng": 105.8384783302915}, "southwest": {"lat": 21.0302528697085, "lng": 105.8357803697085}}}, "icon": "https://maps.gstatic.com/mapfiles/place_api/icons/restaurant-71.png", "id": "008b8859531e1b306872b5c79a35004dab48a56e", "name": "TPP Cigar House_10A Khuc Hao", "opening_hours": {"open_now": true}, "photos": [{"height": 1152, "html_attributions": ["<a href=\"https://maps.google.com/maps/contrib/116470086406874090792/photos\">M\u00f9i \u0110\u1eb7ng</a>"], "photo_reference": "CmRaAAAAa9HyM4TOC4A93LleP7S6o4x19CASkzKzC-nLfFCK7WwdcrhEW0zbsh-LJmhQOtdMgBB84FYhYth9ROcaWGSKRQl4KddqD1H5USdHKYHG3lo6dh3vJvHMVNTI8E_klDrNEhA4e9jVHaXh0i_r_DvO3AHIGhSp6UyXwEgLKTJrwZMtlPuXk8ehAw", "width": 2048}], "place_id": "ChIJ1_tOg5irNTERsOk6wESkboI", "plus_code": {"compound_code": "2RJP+JV Hanoi, Ho\u00e0n Ki\u1ebfm, Hanoi, Vietnam", "global_code": "7PH72RJP+JV"}, "rating": 4.5, "reference": "ChIJ1_tOg5irNTERsOk6wESkboI", "scope": "GOOGLE", "types": ["restaurant", "point_of_interest", "food", "establishment"], "user_ratings_total": 52, "vicinity": "10A Kh\u00fac H\u1ea1o, \u0110i\u1ec7n B\u00e0n"}, {"geometry": {"location": {"lat": 21.03382809999999, "lng": 105.8381545}, "viewport": {"northeast": {"lat": 21.0351511302915, "lng": 105.8394717802915}, "southwest": {"lat": 21.0324531697085, "lng": 105.8367738197085}}}, "icon": "https://maps.gstatic.com/mapfiles/place_api/icons/restaurant-71.png", "id": "7fb5d51a5ead6404f5e22eae52f1f6cb605125d5", "name": "Nh\u00e0 H\u00e0ng Nam Long", "photos": [{"height": 3096, "html_attributions": ["<a href=\"https://maps.google.com/maps/contrib/105720365813592480681/photos\">Hoa Dang</a>"], "photo_reference": "CmRaAAAAfkHxkJ9ms17bqfqNuogBxqHennaehH1jwX5A7plWCiKXWDFK7VS42ljo_F81cXAC6XtI9Oif3y0QvBd-zvWuoAj6E5TdWrBJTivWYDY04PM9e04DCJM7nob0BdTm5lSAEhCB_b0Do5du4HblQVlp7rjwGhRIlNMDl5isy3A_GV7xXd7y1dITBg", "width": 4128}], "place_id": "ChIJbe0l96KrNTERwct2k2JcN90", "plus_code": {"compound_code": "2RMQ+G7 Hanoi, Ho\u00e0n Ki\u1ebfm, Hanoi, Vietnam", "global_code": "7PH72RMQ+G7"}, "rating": 4, "reference": "ChIJbe0l96KrNTERwct2k2JcN90", "scope": "GOOGLE", "types": ["restaurant", "point_of_interest", "food", "establishment"], "user_ratings_total": 73, "vicinity": "36 \u0110i\u1ec7n Bi\u00ean Ph\u1ee7, \u0110i\u1ec7n B\u00e0n"}, {"geometry": {"location": {"lat": 21.029143, "lng": 105.8411703}, "viewport": {"northeast": {"lat": 21.0304014802915, "lng": 105.8424867802915}, "southwest": {"lat": 21.0277035197085, "lng": 105.8397888197085}}}, "icon": "https://maps.gstatic.com/mapfiles/place_api/icons/restaurant-71.png", "id": "fab8e0f92bb85c5673c2a0b3b244e1e9dab54153", "name": "Khai's Brothers Restaurant", "opening_hours": {"open_now": true}, "photos": [{"height": 3024, "html_attributions": ["<a href=\"https://maps.google.com/maps/contrib/110269803508756227140/photos\">Picky Ricky</a>"], "photo_reference": "CmRaAAAALq2RmJAl8bCQ8ZvECoL14ZKEleKy3qJI8RnsJo74sOmUoTT7qyp329l6W2cGLYMZEOnNZkntn9kfAZfk15k7d44EOnmXtGvmKupoIWyvRAi8SS8kGqmKBCVFsXezTxjAEhAu_XSRFd2AC15fUPeF_TXMGhTVBukKnJN9oKV71rRH8lJAMRwDUg", "width": 4032}], "place_id": "ChIJV4aHhperNTERIPetlPjl1pM", "plus_code": {"compound_code": "2RHR+MF Hanoi, Ho\u00e0n Ki\u1ebfm, Hanoi, Vietnam", "global_code": "7PH72RHR+MF"}, "rating": 4, "reference": "ChIJV4aHhperNTERIPetlPjl1pM", "scope": "GOOGLE", "types": ["restaurant", "point_of_interest", "food", "establishment"], "user_ratings_total": 41, "vicinity": "26 Ph\u1ed1 Nguy\u1ec5n Th\u00e1i H\u1ecdc"}, {"geometry": {"location": {"lat": 21.0299014, "lng": 105.828866}, "viewport": {"northeast": {"lat": 21.0309698302915, "lng": 105.8299890302915}, "southwest": {"lat": 21.0282718697085, "lng": 105.8272910697085}}}, "icon": "https://maps.gstatic.com/mapfiles/place_api/icons/lodging-71.png", "id": "e13f223abb56aeabaf0809f954f562175bba7921", "name": "Pullman Hanoi", "opening_hours": {"open_now": true}, "photos": [{"height": 3623, "html_attributions": ["<a href=\"https://maps.google.com/maps/contrib/100255129815577452235/photos\">Pullman Hanoi</a>"], "photo_reference": "CmRaAAAAOt0N7cLEU3UBbRmkTpS3JySLSwydG6Eto39E7lfwlAfWRbsK6OTrIlmgGG0wo7vpjm2-L80ANNQQciLuqt4-lcsq604Q2W0UZtC4LB6lKlNzj1l8aguO8QdBkJbKakPmEhAUubhRBgS89QfqXMq25XyJGhTzkCmmkPZ1tsfZ0pkRffgDG6D_HQ", "width": 4831}], "place_id": "ChIJ__8jvJWrNTER9H4bXX-RqFI", "plus_code": {"compound_code": "2RHH+XG Hanoi, Ho\u00e0n Ki\u1ebfm, Hanoi, Vietnam", "global_code": "7PH72RHH+XG"}, "rating": 4.3, "reference": "ChIJ__8jvJWrNTER9H4bXX-RqFI", "scope": "GOOGLE", "types": ["lodging", "restaurant", "point_of_interest", "food", "establishment"], "user_ratings_total": 1729, "vicinity": "40, \u0110\u1ed1ng \u0110a"}, {"geometry": {"location": {"lat": 21.0310711, "lng": 105.8295443}, "viewport": {"northeast": {"lat": 21.0324377302915, "lng": 105.8309205802915}, "southwest": {"lat": 21.0297397697085, "lng": 105.8282226197085}}}, "icon": "https://maps.gstatic.com/mapfiles/place_api/icons/restaurant-71.png", "id": "703b87c38a9bc1793aa151f6ec85d64043012b85", "name": "Nh\u00e0 H\u00e0ng Chen Gi\u1ea3ng V\u00f5", "opening_hours": {"open_now": true}, "photos": [{"height": 3456, "html_attributions": ["<a href=\"https://maps.google.com/maps/contrib/116716867578106706187/photos\">Nguyen Anh Quan</a>"], "photo_reference": "CmRaAAAAXzCHFq94-sNxv2hsSnD0LXz2omSHVSpVLq_-4sHuKPIDsYoEGVodAJoGl7CMg4MMnaS0JJLgvTeU83j6W-Lr4NCoELvHUsDWXwdV2Fiphfljx5gjYXg97CWp44RhLKzWEhBzPf-coiGrXdyVKik_NGPDGhSw5FxSLS_cndKoMwfX5k0g-pTFPA", "width": 5184}], "place_id": "ChIJBwyj3Z-rNTERIADket2e7uo", "plus_code": {"compound_code": "2RJH+CR Hanoi, Ho\u00e0n Ki\u1ebfm, Hanoi, Vietnam", "global_code": "7PH72RJH+CR"}, "rating": 3.9, "reference": "ChIJBwyj3Z-rNTERIADket2e7uo", "scope": "GOOGLE", "types": ["restaurant", "point_of_interest", "food", "establishment"], "user_ratings_total": 26, "vicinity": "43 Gi\u1ea3ng V\u00f5, C\u00e1t Linh"}, {"geometry": {"location": {"lat": 21.031209, "lng": 105.829619}, "viewport": {"northeast": {"lat": 21.0325780802915, "lng": 105.8309426802915}, "southwest": {"lat": 21.02988011970849, "lng": 105.8282447197085}}}, "icon": "https://maps.gstatic.com/mapfiles/place_api/icons/restaurant-71.png", "id": "05257769757d4bba630bb0c5a60169dc091487d8", "name": "Nha\u0300 ha\u0300ng Chen by NamChen", "opening_hours": {"open_now": true}, "photos": [{"height": 454, "html_attributions": ["<a href=\"https://maps.google.com/maps/contrib/108274997471671997151/photos\">Nha\u0300 ha\u0300ng Chen by NamChen</a>"], "photo_reference": "CmRaAAAAAwqbf7jB-niVr52j09xN0ML6SAzM0fhp82UD7SDbQHUPmerL4ZhRSFCSvvo8dpfkdENs6zsJDwpHEh-XWb47FW1spfw7kAYeRnqo97HPhNgq0Va-94c8R1jpenvrd8reEhDzjz8SNmZwtbtiK4UtXB9JGhQlplkErUGUN_xeU8MfN21PqfZabA", "width": 680}], "place_id": "ChIJKRSF55-rNTERKc_Ise1RzKI", "plus_code": {"compound_code": "2RJH+FR Hanoi, Ho\u00e0n Ki\u1ebfm, Hanoi, Vietnam", "global_code": "7PH72RJH+FR"}, "rating": 4.4, "reference": "ChIJKRSF55-rNTERKc_Ise1RzKI", "scope": "GOOGLE", "types": ["restaurant", "point_of_interest", "food", "establishment"], "user_ratings_total": 8, "vicinity": "43 Gi\u1ea3ng V\u00f5, C\u00e1t Linh"}, {"geometry": {"location": {"lat": 21.031209, "lng": 105.8296189}, "viewport": {"northeast": {"lat": 21.0325779802915, "lng": 105.8309426802915}, "southwest": {"lat": 21.0298800197085, "lng": 105.8282447197085}}}, "icon": "https://maps.gstatic.com/mapfiles/place_api/icons/restaurant-71.png", "id": "38d6923021c3457d4d996478a9e7863b2f2ec59c", "name": "Nha\u0300 ha\u0300ng Chen by Nam Chen", "opening_hours": {"open_now": true}, "photos": [{"height": 2364, "html_attributions": ["<a href=\"https://maps.google.com/maps/contrib/116716867578106706187/photos\">Nguyen Anh Quan</a>"], "photo_reference": "CmRaAAAAQhIknqZhXFMaOrPF0OsW4YQRZI3LREidVduL56IKj4Pn3iXqp5Y4uoo1eikcR84cspkHtBngTRhyl2BBFn2747TyzqV-WnC29Q7_VDer9fIn89Nlu-Og-AJYuVgJf01OEhBjEQ2dnS_l7nniGqeEK9njGhRbKoH25eNomukHMPJ56U3EBjOGZw", "width": 2364}], "place_id": "ChIJKRSF55-rNTERNRGUPrU1Yik", "plus_code": {"compound_code": "2RJH+FR Hanoi, Ho\u00e0n Ki\u1ebfm, Hanoi, Vietnam", "global_code": "7PH72RJH+FR"}, "reference": "ChIJKRSF55-rNTERNRGUPrU1Yik", "scope": "GOOGLE", "types": ["restaurant", "point_of_interest", "food", "establishment"], "vicinity": "43 Gi\u1ea3ng V\u00f5, C\u00e1t Linh"}, {"geometry": {"location": {"lat": 21.031145, "lng": 105.829538}, "viewport": {"northeast": {"lat": 21.0325064302915, "lng": 105.8308757302915}, "southwest": {"lat": 21.0298084697085, "lng": 105.8281777697085}}}, "icon": "https://maps.gstatic.com/mapfiles/place_api/icons/restaurant-71.png", "id": "fa8af3045793cd8d0e5177f14a76aa69646761f4", "name": "Nha\u0300 ha\u0300ng Chen by NamChen", "opening_hours": {"open_now": true}, "photos": [{"height": 3456, "html_attributions": ["<a href=\"https://maps.google.com/maps/contrib/116716867578106706187/photos\">Nguyen Anh Quan</a>"], "photo_reference": "CmRaAAAAIQRU4kSab462bQhO1EqDY0RCE4gtiS97LmP9o8Og0VDba913wnvwKavyNFo_cM3amJ617lNfNIH_Gxerf5wgpb8Ky24mdlFdmAQpl3radxUu_4M93xDtNY-vwJYEKRx1EhB5fTASX19A-PivyrAvyFmmGhSxn7jmZQMeVvNz29kvzOoMJ6XAfA", "width": 5184}], "place_id": "ChIJX5yF3Z-rNTERKSD6TRL0j5M", "plus_code": {"compound_code": "2RJH+FR Hanoi, Ho\u00e0n Ki\u1ebfm, Hanoi, Vietnam", "global_code": "7PH72RJH+FR"}, "rating": 5, "reference": "ChIJX5yF3Z-rNTERKSD6TRL0j5M", "scope": "GOOGLE", "types": ["restaurant", "point_of_interest", "food", "establishment"], "user_ratings_total": 1, "vicinity": "43 Gi\u1ea3ng V\u00f5, C\u00e1t Linh"}, {"geometry": {"location": {"lat": 21.0242607, "lng": 105.8394836}, "viewport": {"northeast": {"lat": 21.02560323029151, "lng": 105.8408543802915}, "southwest": {"lat": 21.0229052697085, "lng": 105.8381564197085}}}, "icon": "https://maps.gstatic.com/mapfiles/place_api/icons/restaurant-71.png", "id": "03e60f1ea2a8d290d0ae8862fdb267cdfab4a2a0", "name": "L\u00e0ng \u1ea8m Th\u1ef1c", "photos": [{"height": 3024, "html_attributions": ["<a href=\"https://maps.google.com/maps/contrib/110253246216943644563/photos\">Nguy\u1ec5n Anh Qu\u00e2n</a>"], "photo_reference": "CmRaAAAA5EtVbyKOdM0l9WCN2sbnKqCOFjAIrl3gmu-bP_GJyiA8Dt3l7QejYqBNVq_9_Ie7poILFYYsrWSHVAcFVeLBv0U0GinaghsG1RooHfOLkOwAl9_FAXGj_SIP9fwRCeNvEhAUPC6WVw-z4qcArZH2_XJLGhQGQtqomno-NuoVnWlHELEHGDbUPg", "width": 4032}], "place_id": "ChIJMXBd3JmrNTERJfre5B3iTUY", "plus_code": {"compound_code": "2RFQ+PQ Hanoi, Ho\u00e0n Ki\u1ebfm, Hanoi, Vietnam", "global_code": "7PH72RFQ+PQ"}, "rating": 4.1, "reference": "ChIJMXBd3JmrNTERJfre5B3iTUY", "scope": "GOOGLE", "types": ["restaurant", "point_of_interest", "food", "establishment"], "user_ratings_total": 43, "vicinity": "8 Ng\u00f5 88 Tr\u1ea7n Qu\u00fd C\u00e1p, V\u0103n Ch\u01b0\u01a1ng"}, {"geometry": {"location": {"lat": 21.0300458, "lng": 105.8426431}, "viewport": {"northeast": {"lat": 21.0314158302915, "lng": 105.8440579802915}, "southwest": {"lat": 21.0287178697085, "lng": 105.8413600197085}}}, "icon": "https://maps.gstatic.com/mapfiles/place_api/icons/restaurant-71.png", "id": "00919de44f879b539dda3928f27f926d2127fe68", "name": "Old Hanoi Restaurant", "opening_hours": {"open_now": false}, "photos": [{"height": 2704, "html_attributions": ["<a href=\"https://maps.google.com/maps/contrib/109490199821077505142/photos\">An Nguy\u1ec5n Huy</a>"], "photo_reference": "CmRaAAAAWXJybx8p5pi-rvyYZnSvS-x1PJ24LP_wwaC06EVw0--sNpV7Roer4ReiYNMM2iXh81V3Fz6y6K3WgridOyYVLlxNg_T1VoQreTjli9cJ52CEWczlCcyNIQJDQVdwd6sYEhBv-qc7r34IjRnGZj6oWiSkGhTxLQrpyPzSUtubTS74DiAY3KOiog", "width": 4056}], "place_id": "ChIJOd0y25erNTERqH0zVjrUjIg", "plus_code": {"compound_code": "2RJV+23 Hanoi, Ho\u00e0n Ki\u1ebfm, Hanoi, Vietnam", "global_code": "7PH72RJV+23"}, "rating": 4.2, "reference": "ChIJOd0y25erNTERqH0zVjrUjIg", "scope": "GOOGLE", "types": ["restaurant", "point_of_interest", "food", "establishment"], "user_ratings_total": 320, "vicinity": "18 Ph\u1ed1 T\u00f4n Th\u1ea5t Thi\u1ec7p, \u0110i\u1ec7n B\u00e0n"}, {"geometry": {"location": {"lat": 21.0290737, "lng": 105.840124}, "viewport": {"northeast": {"lat": 21.0305041302915, "lng": 105.8414954302915}, "southwest": {"lat": 21.02780616970849, "lng": 105.8387974697085}}}, "icon": "https://maps.gstatic.com/mapfiles/place_api/icons/restaurant-71.png", "id": "f52fee94612380c899b8e0ed5d2e096ea929a06b", "name": "Hanoi 67", "opening_hours": {"open_now": true}, "photos": [{"height": 640, "html_attributions": ["<a href=\"https://maps.google.com/maps/contrib/108108115126387874162/photos\">H\u00e0 Trang</a>"], "photo_reference": "CmRaAAAAo9CjArk_DSJjanpt8Js8EG0TVRd8ZdmZfBmJrtTinMFxQM-vJULyI5dxWR6WCsAkefOOiwhO2KurSpIWKOPXFgboEz3-wWVNIB8t1mziOcGuUFhZA36YXWw_XTprq36XEhCz1HE337oSFREY5ADQ5fheGhQBgOrVdtDRxni6IlxfwT26Nd-20Q", "width": 960}], "place_id": "ChIJO3VCKpirNTERVm_vsp5lDTo", "plus_code": {"compound_code": "2RHR+J2 Hanoi, Ho\u00e0n Ki\u1ebfm, Hanoi, Vietnam", "global_code": "7PH72RHR+J2"}, "rating": 4.1, "reference": "ChIJO3VCKpirNTERVm_vsp5lDTo", "scope": "GOOGLE", "types": ["restaurant", "point_of_interest", "food", "establishment"], "user_ratings_total": 30, "vicinity": "67 Ph\u1ed1 Nguy\u1ec5n Th\u00e1i H\u1ecdc, V\u0103n Mi\u1ebfu"}, {"geometry": {"location": {"lat": 21.029572, "lng": 105.840879}, "viewport": {"northeast": {"lat": 21.0309821302915, "lng": 105.8422400802915}, "southwest": {"lat": 21.0282841697085, "lng": 105.8395421197085}}}, "icon": "https://maps.gstatic.com/mapfiles/place_api/icons/restaurant-71.png", "id": "d790f5875ad82c9d7df96bc4528fe6f790d8c3e7", "name": "Ch\u00e2n ch\u00f3 H\u1ed3ng X\u00edu", "opening_hours": {"open_now": true}, "photos": [{"height": 594, "html_attributions": ["<a href=\"https://maps.google.com/maps/contrib/114443957637073323919/photos\">Ch\u00e2n ch\u00f3 H\u1ed3ng X\u00edu</a>"], "photo_reference": "CmRaAAAAgSraT33hZ4yKbTFTZ3qAuhwlDcCqm7IYnFYPChzuOrmLUa-OD-BSE7Qfh9kLGrJYupj0CbtU-w_uhllw892I85H-t0K7_znbr96P4Kxixwe-AG2bcwS85ZTze6H9ql0PEhDFze2l17xan0owrGRoxbc-GhR1kcVfIrPqtMJhU_c6O2C9tILyEQ", "width": 1024}], "place_id": "ChIJAUW0iZerNTERqY39BjqSHBM", "plus_code": {"compound_code": "2RHR+R9 Hanoi, Ho\u00e0n Ki\u1ebfm, Hanoi, Vietnam", "global_code": "7PH72RHR+R9"}, "rating": 4, "reference": "ChIJAUW0iZerNTERqY39BjqSHBM", "scope": "GOOGLE", "types": ["restaurant", "point_of_interest", "food", "establishment"], "user_ratings_total": 5, "vicinity": "7 Cao B\u00e1 Qu\u00e1t, \u0110i\u1ec7n B\u00e0n"}, {"geometry": {"location": {"lat": 21.0342989, "lng": 105.8326559}, "viewport": {"northeast": {"lat": 21.0356185802915, "lng": 105.8340022302915}, "southwest": {"lat": 21.0329206197085, "lng": 105.8313042697085}}}, "icon": "https://maps.gstatic.com/mapfiles/place_api/icons/generic_business-71.png", "id": "95d0da19b47ad21b36958a2ddf1ef427def0eabf", "name": "\u0110\u1ed2 DA TH\u00c1I AN", "opening_hours": {"open_now": true}, "photos": [{"height": 2048, "html_attributions": ["<a href=\"https://maps.google.com/maps/contrib/112287647244559666430/photos\">Th\u1eafng Nguy\u1ec5n</a>"], "photo_reference": "CmRaAAAArUdtusPTwE1fGqc8oPorYf-hO4bYP7K_R-_zM69f3nTXnXPpXX8Ojq-aiK9IgGv5KmpiwTYQKkaNl3yulYI0dYbKpsBlnffLD6QZxEp1ZlcVQOGKaYidicqiL7v-yY8VEhCe_D1HNTZggXe5VO3RnVj4GhRcvyZXYKMpmB8Akf6qUIos98g5Pg", "width": 1152}], "place_id": "ChIJg7qzsKGrNTER5BLPckkyJzY", "plus_code": {"compound_code": "2RMM+P3 Hanoi, Ho\u00e0n Ki\u1ebfm, Hanoi, Vietnam", "global_code": "7PH72RMM+P3"}, "reference": "ChIJg7qzsKGrNTER5BLPckkyJzY", "scope": "GOOGLE", "types": ["travel_agency", "shoe_store", "store", "restaurant", "point_of_interest", "food", "establishment"], "vicinity": "67 L\u00ea H\u1ed3ng Phong, \u0110i\u1ec7n B\u00e0n"}, {"geometry": {"location": {"lat": 21.0336503, "lng": 105.8337048}, "viewport": {"northeast": {"lat": 21.0349995302915, "lng": 105.8349946302915}, "southwest": {"lat": 21.0323015697085, "lng": 105.8322966697085}}}, "icon": "https://maps.gstatic.com/mapfiles/place_api/icons/cafe-71.png", "id": "1d178b92fa4184f1ae05782fe14a608f4adce0e8", "name": "Bcup Coffee", "place_id": "ChIJiTw266GrNTER1gZJb7Y-gqc", "plus_code": {"compound_code": "2RMM+FF Hanoi, Ho\u00e0n Ki\u1ebfm, Hanoi, Vietnam", "global_code": "7PH72RMM+FF"}, "rating": 4.3, "reference": "ChIJiTw266GrNTER1gZJb7Y-gqc", "scope": "GOOGLE", "types": ["cafe", "liquor_store", "bar", "store", "restaurant", "point_of_interest", "food", "establishment"], "user_ratings_total": 6, "vicinity": "5 Ph\u1ed1 \u00d4ng \u00cdch Khi\u00eam, \u0110i\u1ec7n B\u00e0n"}, {"geometry": {"location": {"lat": 21.03049129999999, "lng": 105.8387271}, "viewport": {"northeast": {"lat": 21.03178618029149, "lng": 105.8400734802915}, "southwest": {"lat": 21.02908821970849, "lng": 105.8373755197085}}}, "icon": "https://maps.gstatic.com/mapfiles/place_api/icons/cafe-71.png", "id": "804e4353ac69bbe80d4ee43991476b97734f0a7d", "name": "Oppa Coffee & Store", "opening_hours": {"open_now": true}, "photos": [{"height": 960, "html_attributions": ["<a href=\"https://maps.google.com/maps/contrib/102608947177117008576/photos\">D\u01b0\u01a1ng Phong HCHV - H\u00e0 N\u1ed9i \u0110\u1eb9p</a>"], "photo_reference": "CmRaAAAA-4jPNJ0Q5BFhvrx_0Etu0DexU4Ea5E9PMdvECUIsawyR9ogderZUZzDm92DyCnQoJ7bTf3s8GNNgt6QNreU-7jpMCJGpzvbLf2rk03VjdprbFRqZwGKo08nRnzG4JQeQEhDn9cklKXMy_HgkaH_wssEvGhQbHL4BioQ-Wm1jLKS-YNK0AtehRw", "width": 539}], "place_id": "ChIJ15VIaJirNTERTQWQrsktzB8", "plus_code": {"compound_code": "2RJQ+5F Hanoi, Ho\u00e0n Ki\u1ebfm, Hanoi, Vietnam", "global_code": "7PH72RJQ+5F"}, "rating": 3.2, "reference": "ChIJ15VIaJirNTERTQWQrsktzB8", "scope": "GOOGLE", "types": ["cafe", "store", "point_of_interest", "food", "establishment"], "user_ratings_total": 13, "vicinity": "32 Cao B\u00e1 Qu\u00e1t, \u0110i\u1ec7n B\u00e0n"}, {"geometry": {"location": {"lat": 21.0290349, "lng": 105.8411937}, "viewport": {"northeast": {"lat": 21.0303386802915, "lng": 105.8425264802915}, "southwest": {"lat": 21.0276407197085, "lng": 105.8398285197085}}}, "icon": "https://maps.gstatic.com/mapfiles/place_api/icons/cafe-71.png", "id": "cda75178ed065505ef2313fe05b71bdf13c14a31", "name": "Brother's Cafe", "opening_hours": {"open_now": true}, "photos": [{"height": 1188, "html_attributions": ["<a href=\"https://maps.google.com/maps/contrib/106691783393579966205/photos\">Kamruzzaman Nayan</a>"], "photo_reference": "CmRaAAAAiIxvCwqzS8ZPOJY-7bwsbcNFE763uaT2brEivTS4VY9QiqpEV55xBJFkzEiRDfkD1ftJOAvNWVDJMPXOCl5eEWUz0xQU-lP-HYMhztC4jLriGW3VEMw277zd7H8FqzSXEhAIx50JG74ylG3fTOzv2LeRGhS5sJ_fFTauARM8BaMuGqZtzpVETg", "width": 2576}], "place_id": "ChIJW_FoKJirNTERyjNFxu1OwV0", "plus_code": {"compound_code": "2RHR+JF Hanoi, Ho\u00e0n Ki\u1ebfm, Hanoi, Vietnam", "global_code": "7PH72RHR+JF"}, "price_level": 2, "rating": 4, "reference": "ChIJW_FoKJirNTERyjNFxu1OwV0", "scope": "GOOGLE", "types": ["cafe", "restaurant", "point_of_interest", "food", "establishment"], "user_ratings_total": 88, "vicinity": "26 Ph\u1ed1 Nguy\u1ec5n Th\u00e1i H\u1ecdc, \u0110i\u1ec7n B\u00e0n"}, {"geometry": {"location": {"lat": 21.0336159, "lng": 105.8383125}, "viewport": {"northeast": {"lat": 21.0349528802915, "lng": 105.8396468302915}, "southwest": {"lat": 21.0322549197085, "lng": 105.8369488697085}}}, "icon": "https://maps.gstatic.com/mapfiles/place_api/icons/cafe-71.png", "id": "d22e166109c2b5544e33a1788535af15a62045d3", "name": "Cong Ca phe Dien Bien Phu", "opening_hours": {"open_now": true}, "photos": [{"height": 742, "html_attributions": ["<a href=\"https://maps.google.com/maps/contrib/116472122786360890963/photos\">S\u00f3i \u0110\u1ea1i Hi\u1ec7p</a>"], "photo_reference": "CmRZAAAASXonia79oxVN0bk4Maub_lOEPZmT6yb0ryFwUZ9XWE2CYfAVl1n4_UPKoDu2rNicLEMLAsNvRvndk3aTCAXpQIZS7-clTGgWWEcapyThYzta74HvwpVnoV2RlSQN3jYkEhC9qfDgegHkqJ-RKuYhYVYaGhTB0jOO_Kzz3EoSN4Kph2qp7mzmGg", "width": 741}], "place_id": "ChIJrTUX7aKrNTERUTkb_LO2ZHA", "plus_code": {"compound_code": "2RMQ+C8 Hanoi, Ho\u00e0n Ki\u1ebfm, Hanoi, Vietnam", "global_code": "7PH72RMQ+C8"}, "price_level": 2, "rating": 4.1, "reference": "ChIJrTUX7aKrNTERUTkb_LO2ZHA", "scope": "GOOGLE", "types": ["cafe", "bar", "point_of_interest", "food", "establishment"], "user_ratings_total": 772, "vicinity": "32 \u0110i\u1ec7n Bi\u00ean Ph\u1ee7, \u0110i\u1ec7n B\u00e0n"}, {"geometry": {"location": {"lat": 21.0277417, "lng": 105.8313467}, "viewport": {"northeast": {"lat": 21.0290622302915, "lng": 105.8327706802915}, "southwest": {"lat": 21.0263642697085, "lng": 105.8300727197085}}}, "icon": "https://maps.gstatic.com/mapfiles/place_api/icons/cafe-71.png", "id": "7a7e57b220c24b82ff58039cdfb9832cdb838a3b", "name": "C\u00e0 Ph\u00ea Ph\u1ed1 M\u1edbi", "opening_hours": {"open_now": true}, "photos": [{"height": 3264, "html_attributions": ["<a href=\"https://maps.google.com/maps/contrib/101279691882712668127/photos\">Th\u1ea3o Di\u1ec7u</a>"], "photo_reference": "CmRaAAAAXe7kDUBZsJDZyAxDJNxvx8Jq52x2DXWZkRvMv-ODFyfqoettSh6QMg4O2HcCieghoYj-5QnhdPnCBRSObam3gJ4L7zi0B3mf0J58NZwVBsHgT-1S4mqkBrzugudwp0KyEhDgZCWH9C_HmYy9fBYdByJuGhQGUqEc_UukyfJXpMAts1LJGwl-TA", "width": 2448}], "place_id": "ChIJY_LUZZ6rNTERhMja_Rm6mL4", "plus_code": {"compound_code": "2RHJ+3G Hanoi, Ho\u00e0n Ki\u1ebfm, Hanoi, Vietnam", "global_code": "7PH72RHJ+3G"}, "rating": 3.9, "reference": "ChIJY_LUZZ6rNTERhMja_Rm6mL4", "scope": "GOOGLE", "types": ["cafe", "point_of_interest", "food", "establishment"], "user_ratings_total": 45, "vicinity": "36 An Tr\u1ea1ch"}, {"geometry": {"location": {"lat": 21.0256161, "lng": 105.8276022}, "viewport": {"northeast": {"lat": 21.0269723302915, "lng": 105.8288958802915}, "southwest": {"lat": 21.0242743697085, "lng": 105.8261979197085}}}, "icon": "https://maps.gstatic.com/mapfiles/place_api/icons/cafe-71.png", "id": "168fde0a918fd47519d82fd1a248f1726b89a485", "name": "Cafe 156 H\u00e0o nam", "opening_hours": {"open_now": true}, "photos": [{"height": 3024, "html_attributions": ["<a href=\"https://maps.google.com/maps/contrib/109236853280650930544/photos\">Vu Thang</a>"], "photo_reference": "CmRaAAAAOSgay1_Qz7s_7CzK2qXwoPY5e5n1VgXZXobqrjXMOFk4T2GbMHQhz4UvDc9P6D2RaQhr-qn6kNtM0rGDPz1yxElaBmBRRyPdxmC-_gqePWwnDDYSRk-1SG0WzCbppEcAEhD-dtMkAO6FOkUd-F330mofGhRLywwT93t4E2-anqbXpMDVtnlFmA", "width": 4032}], "place_id": "ChIJ1dYoFXarNTERWFUFuK3wlW8", "plus_code": {"compound_code": "2RGH+62 Hanoi, Ho\u00e0n Ki\u1ebfm, Hanoi, Vietnam", "global_code": "7PH72RGH+62"}, "rating": 3.8, "reference": "ChIJ1dYoFXarNTERWFUFuK3wlW8", "scope": "GOOGLE", "types": ["cafe", "point_of_interest", "food", "establishment"], "user_ratings_total": 20, "vicinity": "156 H\u00e0o Nam, Ch\u1ee3 D\u1eeba"}, {"geometry": {"location": {"lat": 21.0284267, "lng": 105.8259371}, "viewport": {"northeast": {"lat": 21.0298032802915, "lng": 105.8272614802915}, "southwest": {"lat": 21.0271053197085, "lng": 105.8245635197085}}}, "icon": "https://maps.gstatic.com/mapfiles/place_api/icons/cafe-71.png", "id": "1c87909da9563b0b21c0d112bd8e1996a92e5acc", "name": "Feeling Tea Milk", "opening_hours": {"open_now": true}, "photos": [{"height": 2161, "html_attributions": ["<a href=\"https://maps.google.com/maps/contrib/106829240293408733632/photos\">NGUYEN TIEN TIEP</a>"], "photo_reference": "CmRaAAAAdwXw3anOkPl8CcT-EFBg2QOAxPgMeDRQzYKAW2vKqjO6FpQHKnT8fd0hp7-7cIWrOyXWLwAFryDtTKktUN7Phl4xm1LI4E73TvdKBItTsKaI4zVmbeUZyg7a3zusKV0IEhDlIPJNaKqEQc2u3IJ_iDsYGhSsnM4FUcSwTy5irrbBV_C3cdq_CQ", "width": 3297}], "place_id": "ChIJnx4bo3WrNTERFddyzpmGxKg", "plus_code": {"compound_code": "2RHG+99 Hanoi, Ho\u00e0n Ki\u1ebfm, Hanoi, Vietnam", "global_code": "7PH72RHG+99"}, "price_level": 1, "rating": 3.9, "reference": "ChIJnx4bo3WrNTERFddyzpmGxKg", "scope": "GOOGLE", "types": ["cafe", "point_of_interest", "food", "establishment"], "user_ratings_total": 100, "vicinity": "155 Gi\u1ea3ng V\u00f5, Ch\u1ee3 D\u1eeba"}, {"geometry": {"location": {"lat": 21.027764, "lng": 105.83416}, "viewport": {"northeast": {"lat": 21.0291287802915, "lng": 105.8355241302915}, "southwest": {"lat": 21.02643081970849, "lng": 105.8328261697085}}}, "icon": "https://maps.gstatic.com/mapfiles/place_api/icons/cafe-71.png", "id": "6b9eaa6e5630e0e4fbe095e9ae3e1cb9709cb81e", "name": "SmartCoffee", "opening_hours": {"open_now": true}, "place_id": "ChIJMUkeuJ6rNTERxeRcN58KpKA", "reference": "ChIJMUkeuJ6rNTERxeRcN58KpKA", "scope": "GOOGLE", "types": ["cafe", "store", "point_of_interest", "food", "establishment"], "vicinity": "P412-C1 H\u00f4\u0300 \u0111\u0103\u0301c Di, Qu\u1ed1c T\u1eed Gi\u00e1m"}, {"geometry": {"location": {"lat": 21.02788, "lng": 105.834063}, "viewport": {"northeast": {"lat": 21.0292003802915, "lng": 105.8353958802915}, "southwest": {"lat": 21.0265024197085, "lng": 105.8326979197085}}}, "icon": "https://maps.gstatic.com/mapfiles/place_api/icons/cafe-71.png", "id": "619aceb35e5e8117db6bf00051e6df84e9bebe24", "name": "Cafe Che Sai Gon", "photos": [{"height": 3024, "html_attributions": ["<a href=\"https://maps.google.com/maps/contrib/101019727175595756330/photos\">Sang hyup Lee</a>"], "photo_reference": "CmRaAAAA-SnQgq1HOVIkJB5o9YU9jsoMGLdZNyEGUPyhg6fMGq5PX9oSg0A7W7fGQI5YUTS-fEzmplWp4B7AqOe1PGfEjiX1-bHwXK-3gYzCF-fTDyWKRKEJlP1IxZ88F00LjWJjEhDY0vLvG_Wz2L8DEUosJL7XGhT4ALpn2jBUKnzAk2n6lh-KpDQXUw", "width": 4032}], "place_id": "ChIJ216Mx56rNTERC8eeOE5xhfk", "plus_code": {"compound_code": "2RHM+5J Hanoi, Ho\u00e0n Ki\u1ebfm, Hanoi, Vietnam", "global_code": "7PH72RHM+5J"}, "rating": 4.1, "reference": "ChIJ216Mx56rNTERC8eeOE5xhfk", "scope": "GOOGLE", "types": ["cafe", "point_of_interest", "food", "establishment"], "user_ratings_total": 12, "vicinity": "2 C\u00e1t Linh, Qu\u1ed1c T\u1eed Gi\u00e1m"}, {"geometry": {"location": {"lat": 21.0276299, "lng": 105.834517}, "viewport": {"northeast": {"lat": 21.0289722802915, "lng": 105.8358633802915}, "southwest": {"lat": 21.0262743197085, "lng": 105.8331654197085}}}, "icon": "https://maps.gstatic.com/mapfiles/place_api/icons/cafe-71.png", "id": "4a5d6d4fa91759c5bf4d31692135db6a14a2a070", "name": "KathiRoll Kafe", "opening_hours": {"open_now": true}, "photos": [{"height": 3120, "html_attributions": ["<a href=\"https://maps.google.com/maps/contrib/107045136406197312448/photos\">T\u00e2m Nguy\u1ec5n \u0110\u1ee9c</a>"], "photo_reference": "CmRaAAAA-KqIPAWsJ0el4BjcLdNz2KncIHaz7hVDHuyPTbGtRZprsLDh_vhya-bSDAeJqH8YH_0TApxecAFtUthkIKjkU5JpRXIDe5C6YfVcJcZZ-myAdFZu4WuTLGLWBo28yy5aEhACPydQxwmm_h1q3POtbGGbGhRVSEYEBdjqT9w7z7_L6rs7c6xHSQ", "width": 4160}], "place_id": "ChIJnT1-tp6rNTERGxBTFMTo9RQ", "plus_code": {"compound_code": "2RHM+3R Hanoi, Ho\u00e0n Ki\u1ebfm, Hanoi, Vietnam", "global_code": "7PH72RHM+3R"}, "rating": 4, "reference": "ChIJnT1-tp6rNTERGxBTFMTo9RQ", "scope": "GOOGLE", "types": ["cafe", "point_of_interest", "food", "establishment"], "user_ratings_total": 5, "vicinity": "67 Qu\u1ed1c T\u1eed Gi\u00e1m"}, {"geometry": {"location": {"lat": 21.0268554, "lng": 105.8339401}, "viewport": {"northeast": {"lat": 21.0281750802915, "lng": 105.8352766302915}, "southwest": {"lat": 21.0254771197085, "lng": 105.8325786697085}}}, "icon": "https://maps.gstatic.com/mapfiles/place_api/icons/cafe-71.png", "id": "100a865994df0bdd47e425fa8486891198157672", "name": "Goky Kafe", "place_id": "ChIJnZi2g4arNTERLoDwyxBKd5c", "plus_code": {"compound_code": "2RGM+PH Hanoi, Ho\u00e0n Ki\u1ebfm, Hanoi, Vietnam", "global_code": "7PH72RGM+PH"}, "rating": 3.5, "reference": "ChIJnZi2g4arNTERLoDwyxBKd5c", "scope": "GOOGLE", "types": ["cafe", "point_of_interest", "food", "establishment"], "user_ratings_total": 6, "vicinity": "65, Ng\u00e1ch 97, Ng\u00f5 165, Ph\u1ed1 Ch\u1ee3 Kh\u00e2m Thi\u00ean, Ph\u01b0\u1eddng Ph\u01b0\u01a1ng Li\u00ean, Qu\u1eadn \u0110\u1ed1ng \u0110a, Qu\u1ed1c T\u1eed Gi\u00e1m"}, {"geometry": {"location": {"lat": 21.0259136, "lng": 105.8332494}, "viewport": {"northeast": {"lat": 21.02726738029151, "lng": 105.8345858302915}, "southwest": {"lat": 21.0245694197085, "lng": 105.8318878697085}}}, "icon": "https://maps.gstatic.com/mapfiles/place_api/icons/restaurant-71.png", "id": "fbf29b852ab2d8a88e2c1664d2f43b6c09d20014", "name": "C\u1eeda H\u00e0ng B\u00e1nh Paris Gateaux T\u00f4n \u0110\u1ee9c Th\u1eafng", "photos": [{"height": 300, "html_attributions": ["<a href=\"https://maps.google.com/maps/contrib/101626687580533151306/photos\">Vietrans C\u00f4ng ty D\u1ecbch thu\u1eadt</a>"], "photo_reference": "CmRaAAAAYA4bjcdJdv55dqA_Ox2WrMcmc01bHNPr9hGLiSTHOj3zwTfifbnYBVrTFWtOxiLCHGMoOh7ywy79VSnlnzrrUcuebPRNDDeaJKWjvM12U5MZojIAB0ezrLrRH6AOQOoWEhDvFogj_EDZnTnp43GW174NGhR2dzopgWxdxN7o3fvPcQZK6JPNEA", "width": 480}], "place_id": "ChIJV2JW-5yrNTER5RoqT3D2rzs", "plus_code": {"compound_code": "2RGM+97 Hanoi, Ho\u00e0n Ki\u1ebfm, Hanoi, Vietnam", "global_code": "7PH72RGM+97"}, "price_level": 2, "rating": 4, "reference": "ChIJV2JW-5yrNTER5RoqT3D2rzs", "scope": "GOOGLE", "types": ["bakery", "cafe", "store", "point_of_interest", "food", "establishment"], "user_ratings_total": 60, "vicinity": "140 Ph\u1ed1 T\u00f4n \u0110\u1ee9c Th\u1eafng, Qu\u1ed1c T\u1eed Gi\u00e1m"}, {"geometry": {"location": {"lat": 21.030323, "lng": 105.833903}, "viewport": {"northeast": {"lat": 21.0316723302915, "lng": 105.8352508302915}, "southwest": {"lat": 21.02897436970849, "lng": 105.8325528697085}}}, "icon": "https://maps.gstatic.com/mapfiles/place_api/icons/cafe-71.png", "id": "93270e9a6ff434be9754d63783765b16897a1e22", "name": "Meow Tea", "opening_hours": {"open_now": true}, "photos": [{"height": 2448, "html_attributions": ["<a href=\"https://maps.google.com/maps/contrib/113314742396942541902/photos\">Alex Wu</a>"], "photo_reference": "CmRaAAAAhzg3kvX5rv-rwBrSX6Wdbdsv-o02ArBo3yS_35LlBZMinu1ijv3cLxSql6Wwls7P2MAaMXINBHrG8OHjXkl7QEie04EOKpdqN_Ei1GIXFhoy9Vgp1KYzgyaio0nmehTPEhDmWlgNLmjG0vZW1Svzl_tWGhQW09268W0pg7CUeXIebsLlfJT7IA", "width": 3264}], "place_id": "ChIJE6rBO5-rNTERk7gX-Iz04_o", "plus_code": {"compound_code": "2RJM+4H Hanoi, Ho\u00e0n Ki\u1ebfm, Hanoi, Vietnam", "global_code": "7PH72RJM+4H"}, "rating": 4, "reference": "ChIJE6rBO5-rNTERk7gX-Iz04_o", "scope": "GOOGLE", "types": ["cafe", "point_of_interest", "food", "establishment"], "user_ratings_total": 6, "vicinity": "6F Ng\u00f5 H\u00e0ng Ch\u00e1o, C\u00e1t Linh"}, {"geometry": {"location": {"lat": 21.0294747, "lng": 105.8319902}, "viewport": {"northeast": {"lat": 21.0308127802915, "lng": 105.8333762302915}, "southwest": {"lat": 21.0281148197085, "lng": 105.8306782697085}}}, "icon": "https://maps.gstatic.com/mapfiles/place_api/icons/cafe-71.png", "id": "9522844ddbdb288353bb08b1dd6465f6d75bb093", "name": "Swit Point - Dessert Cafe", "opening_hours": {"open_now": true}, "photos": [{"height": 1280, "html_attributions": ["<a href=\"https://maps.google.com/maps/contrib/109236205188990734213/photos\">Hue Tran Minh</a>"], "photo_reference": "CmRaAAAAiFBlIQAuRmWPsYSXoJiUzQgByLrfUlneJOlPDI46LNqcLBzCbbhrq2KN4IPwrErIXwYg96KgVVKsAkSPvhBxWtwTT2i-IL_GQf-1nKrnxHN3aBgQqJEFitdNbyXKq4wIEhCs2s44w_20W_NWK3HM1sJ4GhTP6zXxKLO7DsvmFQ-3lOBoOtmBVw", "width": 1278}], "place_id": "ChIJkwb8_56rNTER-RGdxiRXNPg", "plus_code": {"compound_code": "2RHJ+QQ Hanoi, Ho\u00e0n Ki\u1ebfm, Hanoi, Vietnam", "global_code": "7PH72RHJ+QQ"}, "rating": 4.5, "reference": "ChIJkwb8_56rNTER-RGdxiRXNPg", "scope": "GOOGLE", "types": ["cafe", "point_of_interest", "food", "establishment"], "user_ratings_total": 2, "vicinity": "12C Tr\u1ecbnh Ho\u00e0i \u0110\u1ee9c, C\u00e1t Linh"}, {"geometry": {"location": {"lat": 21.0266378, "lng": 105.8369422}, "viewport": {"northeast": {"lat": 21.0279680802915, "lng": 105.8382800302915}, "southwest": {"lat": 21.0252701197085, "lng": 105.8355820697085}}}, "icon": "https://maps.gstatic.com/mapfiles/place_api/icons/cafe-71.png", "id": "39f07cba26a47fb9c4473e6fa2c30c9cb8f560a9", "name": "C\u00e0 Ph\u00ea Green Fair", "place_id": "ChIJW9X7ZJmrNTERlGAEEmN6ztQ", "plus_code": {"compound_code": "2RGP+MQ Hanoi, Ho\u00e0n Ki\u1ebfm, Hanoi, Vietnam", "global_code": "7PH72RGP+MQ"}, "reference": "ChIJW9X7ZJmrNTERlGAEEmN6ztQ", "scope": "GOOGLE", "types": ["cafe", "point_of_interest", "food", "establishment"], "vicinity": "27 Qu\u1ed1c T\u1eed Gi\u00e1m, V\u0103n Ch\u01b0\u01a1ng"}, {"geometry": {"location": {"lat": 21.026216, "lng": 105.837544}, "viewport": {"northeast": {"lat": 21.0275724802915, "lng": 105.8388974802915}, "southwest": {"lat": 21.02487451970849, "lng": 105.8361995197085}}}, "icon": "https://maps.gstatic.com/mapfiles/place_api/icons/cafe-71.png", "id": "ae692ae3a8904be4994044f770323b2f93f1a5b3", "name": "Cafe Tr\u1ea7n", "opening_hours": {"open_now": true}, "photos": [{"height": 4128, "html_attributions": ["<a href=\"https://maps.google.com/maps/contrib/109015125634942971721/photos\">thu h\u00e0 nguy\u1ec5n</a>"], "photo_reference": "CmRaAAAAxFYQRu-G7whF_W-I6yCH6321h53aBuL-8in-fwUzyBzJ2DOJzj0mPf05Yqz_-U-MKb2hTFUmLQKw104qJVtMMb2CQBUsht80WM6xCuZ7PSLxMwmWkCcAR08IljdHJ3OMEhDUYmFOQp-5Tpn6AzRxTEtqGhQIakJyP2VRs7giR8lNxzXF2Cpc_g", "width": 2322}], "place_id": "ChIJg2dmfpmrNTERsYRRuotR2xs", "plus_code": {"compound_code": "2RGQ+F2 Hanoi, Ho\u00e0n Ki\u1ebfm, Hanoi, Vietnam", "global_code": "7PH72RGQ+F2"}, "reference": "ChIJg2dmfpmrNTERsYRRuotR2xs", "scope": "GOOGLE", "types": ["cafe", "point_of_interest", "food", "establishment"], "vicinity": "13 Qu\u1ed1c T\u1eed Gi\u00e1m, V\u0103n Ch\u01b0\u01a1ng"}, {"geometry": {"location": {"lat": 21.0283524, "lng": 105.8298538}, "viewport": {"northeast": {"lat": 21.0297042802915, "lng": 105.8311917802915}, "southwest": {"lat": 21.02700631970849, "lng": 105.8284938197085}}}, "icon": "https://maps.gstatic.com/mapfiles/place_api/icons/cafe-71.png", "id": "5aefd5859027d0da774b7917cd84e2ed831133f9", "name": "Ch\u00e8 Bu\u1ed5i Hemi", "place_id": "ChIJpSw-PZ6rNTERzWC071d-uwY", "plus_code": {"compound_code": "2RHH+8W Hanoi, Ho\u00e0n Ki\u1ebfm, Hanoi, Vietnam", "global_code": "7PH72RHH+8W"}, "reference": "ChIJpSw-PZ6rNTERzWC071d-uwY", "scope": "GOOGLE", "types": ["cafe", "point_of_interest", "food", "establishment"], "vicinity": "Ng\u00f5 27 C\u00e1t Linh, C\u00e1t Linh"}, {"geometry": {"location": {"lat": 21.0293196, "lng": 105.8295362}, "viewport": {"northeast": {"lat": 21.0305906302915, "lng": 105.8308692302915}, "southwest": {"lat": 21.0278926697085, "lng": 105.8281712697085}}}, "icon": "https://maps.gstatic.com/mapfiles/place_api/icons/cafe-71.png", "id": "f56740dace332b0276adf81a1366fcc95bba40c4", "name": "Polygon Musik", "opening_hours": {"open_now": true}, "photos": [{"height": 400, "html_attributions": ["<a href=\"https://maps.google.com/maps/contrib/115327784299555385090/photos\">Hung Cuong</a>"], "photo_reference": "CmRaAAAA-mnUzQvon8T1HqpQU0tgcxVsw71IersA6slvU5rShPQBIeYyv3WfaJ3uxkIHaGkRBQEAFxt5egvww2qIMDZ7_D3Ague-eyS4OO1nBno4fUbagfs-GoQSiNwXWsjTz9FAEhA69veBDPkX_zuzBcEYwanTGhRGN61AOCvI5uzH1jCV0aCA5F2bbA", "width": 640}], "place_id": "ChIJC_uPLp6rNTERLdRygeI_gyk", "plus_code": {"compound_code": "2RHH+PR Hanoi, Ho\u00e0n Ki\u1ebfm, Hanoi, Vietnam", "global_code": "7PH72RHH+PR"}, "price_level": 2, "rating": 4.4, "reference": "ChIJC_uPLp6rNTERLdRygeI_gyk", "scope": "GOOGLE", "types": ["cafe", "point_of_interest", "food", "establishment"], "user_ratings_total": 227, "vicinity": "36 C\u00e1t Linh"}, {"geometry": {"location": {"lat": 21.0290782, "lng": 105.8401183}, "viewport": {"northeast": {"lat": 21.0305071802915, "lng": 105.8414893302915}, "southwest": {"lat": 21.0278092197085, "lng": 105.8387913697085}}}, "icon": "https://maps.gstatic.com/mapfiles/place_api/icons/cafe-71.png", "id": "a9f4d7f53f487e7d4c1fef3fb125b45a30999c67", "name": "Hano\u00ef 67", "photos": [{"height": 4032, "html_attributions": ["<a href=\"https://maps.google.com/maps/contrib/105247794994902083054/photos\">Ho Thanh Binh</a>"], "photo_reference": "CmRaAAAAtTio3iXz8XJBJAfIc9KX2Ce7zswfMOKPGzDnn35igsTcrm-_2n-UzOJCOLRHFYmckdwQW16nFOW9U1OW9jSYKTO3fUsEN7MUSt3drpljIjdMiLvAoIBEWMv5x5B5tPpgEhCF9NBVNi1EI5n3JOJ6MzFeGhQJiRqSZBk7nYWnPUoXCMlC1-VPAQ", "width": 3024}], "place_id": "ChIJdexTMJirNTERaCAyGioFktk", "plus_code": {"compound_code": "2RHR+J2 Hanoi, Ho\u00e0n Ki\u1ebfm, Hanoi, Vietnam", "global_code": "7PH72RHR+J2"}, "rating": 3.9, "reference": "ChIJdexTMJirNTERaCAyGioFktk", "scope": "GOOGLE", "types": ["cafe", "point_of_interest", "food", "establishment"], "user_ratings_total": 13, "vicinity": "67A Ph\u1ed1 Nguy\u1ec5n Th\u00e1i H\u1ecdc, V\u0103n Mi\u1ebfu"}, {"geometry": {"location": {"lat": 21.0336503, "lng": 105.8337048}, "viewport": {"northeast": {"lat": 21.0349995302915, "lng": 105.8349946302915}, "southwest": {"lat": 21.0323015697085, "lng": 105.8322966697085}}}, "icon": "https://maps.gstatic.com/mapfiles/place_api/icons/cafe-71.png", "id": "1d178b92fa4184f1ae05782fe14a608f4adce0e8", "name": "Bcup Coffee", "place_id": "ChIJiTw266GrNTER1gZJb7Y-gqc", "plus_code": {"compound_code": "2RMM+FF Hanoi, Ho\u00e0n Ki\u1ebfm, Hanoi, Vietnam", "global_code": "7PH72RMM+FF"}, "rating": 4.3, "reference": "ChIJiTw266GrNTER1gZJb7Y-gqc", "scope": "GOOGLE", "types": ["cafe", "liquor_store", "bar", "store", "restaurant", "point_of_interest", "food", "establishment"], "user_ratings_total": 6, "vicinity": "5 Ph\u1ed1 \u00d4ng \u00cdch Khi\u00eam, \u0110i\u1ec7n B\u00e0n"}, {"geometry": {"location": {"lat": 21.0337642, "lng": 105.8336886}, "viewport": {"northeast": {"lat": 21.0351133802915, "lng": 105.8349867802915}, "southwest": {"lat": 21.0324154197085, "lng": 105.8322888197085}}}, "icon": "https://maps.gstatic.com/mapfiles/place_api/icons/cafe-71.png", "id": "c67e14e3e84d5ff41756ebe40aaa31b4d0c9d9f6", "name": "Vina Cafe", "photos": [{"height": 3024, "html_attributions": ["<a href=\"https://maps.google.com/maps/contrib/102630994895427967699/photos\">Furrytail Portraits</a>"], "photo_reference": "CmRaAAAAmQU0f9uyRPyK8k_AQTvwejzdW_AKhmil7hESAE54ZHog4RR2N3ODlFkqB96CkDumqoTgi67GvlYhDsNck_DMqE6ThpOF6GiFiMrjG_qQDryfmH9pfKaz3zEKUKma5iG4EhBGEPYm8qKwekKkzqgQE3BkGhQEGqSBSrKYasg7E_MK9Il1CPh2ig", "width": 4032}], "place_id": "ChIJix8olaGrNTERNEd9xKrvUck", "plus_code": {"compound_code": "2RMM+GF Hanoi, Ho\u00e0n Ki\u1ebfm, Hanoi, Vietnam", "global_code": "7PH72RMM+GF"}, "rating": 3.8, "reference": "ChIJix8olaGrNTERNEd9xKrvUck", "scope": "GOOGLE", "types": ["cafe", "store", "point_of_interest", "food", "establishment"], "user_ratings_total": 20, "vicinity": "5 Ph\u1ed1 \u00d4ng \u00cdch Khi\u00eam, \u0110i\u1ec7n B\u00e0n"}, {"geometry": {"location": {"lat": 21.024744, "lng": 105.839875}, "viewport": {"northeast": {"lat": 21.0260928302915, "lng": 105.8412351302915}, "southwest": {"lat": 21.0233948697085, "lng": 105.8385371697085}}}, "icon": "https://maps.gstatic.com/mapfiles/place_api/icons/cafe-71.png", "id": "f21f7d9a5743e631e02c7ed995abdc07526d8fa6", "name": "Caf\u00e9 de Nam - Qu\u00e1n ch\u1ecb H\u1eb1ng", "place_id": "ChIJheUrEpqrNTERx71prZGpXNM", "plus_code": {"compound_code": "2RFQ+VX Hanoi, Ho\u00e0n Ki\u1ebfm, Hanoi, Vietnam", "global_code": "7PH72RFQ+VX"}, "reference": "ChIJheUrEpqrNTERx71prZGpXNM", "scope": "GOOGLE", "types": ["cafe", "point_of_interest", "food", "establishment"], "vicinity": "tr\u1ea7n qu\u00fd c\u00e1p, TP. H\u00e0 N\u1ed9i"}, {"geometry": {"location": {"lat": 21.0275755, "lng": 105.8407493}, "viewport": {"northeast": {"lat": 21.0289982302915, "lng": 105.8421063302915}, "southwest": {"lat": 21.0263002697085, "lng": 105.8394083697085}}}, "icon": "https://maps.gstatic.com/mapfiles/place_api/icons/cafe-71.png", "id": "9f7198ffafa4315de6e18c27bf560dca5365cd60", "name": "Juicize Go", "opening_hours": {"open_now": true}, "photos": [{"height": 2304, "html_attributions": ["<a href=\"https://maps.google.com/maps/contrib/111412758439896202016/photos\">Barbara Balmer</a>"], "photo_reference": "CmRaAAAABROeTUXPMioDVrd7gI3Ha0u9Tcz3xjDTAXIGMarZ9wQn99u0lqjn4K7-8PstXkqDUZD6cL1SeJfacQJPjQtMBOg26qUCfh-kXNCHLeJBO2XmYw-M6QvzaOgvq3UKYIQSEhDHNl6xzvEML86MdTZ8z3R5GhT-lYizS-KIRAY0j_qio3qgjVY8GQ", "width": 4096}], "place_id": "ChIJM80WD5mrNTERuhFlz_1plEE", "plus_code": {"compound_code": "2RHR+27 Hanoi, Ho\u00e0n Ki\u1ebfm, Hanoi, Vietnam", "global_code": "7PH72RHR+27"}, "rating": 5, "reference": "ChIJM80WD5mrNTERuhFlz_1plEE", "scope": "GOOGLE", "types": ["cafe", "store", "point_of_interest", "food", "establishment"], "user_ratings_total": 3, "vicinity": "11 Ph\u1ed1 Nguy\u1ec5n Khuy\u1ebfn, V\u0103n Mi\u1ebfu"}, {"geometry": {"location": {"lat": 21.0299033, "lng": 105.8404219}, "viewport": {"northeast": {"lat": 21.0312399802915, "lng": 105.8417658302915}, "southwest": {"lat": 21.0285420197085, "lng": 105.8390678697085}}}, "icon": "https://maps.gstatic.com/mapfiles/place_api/icons/cafe-71.png", "id": "ac0b3655d7cdacf9accb1abadbb3b0b5c7f92159", "name": "Cafe Thu H\u00e0", "photos": [{"height": 1920, "html_attributions": ["<a href=\"https://maps.google.com/maps/contrib/114105808613703982054/photos\">C\u01b0\u1eddng Qu\u1ea3n</a>"], "photo_reference": "CmRaAAAAofpNHQSztktzVfdX908zCWbwsdcLlAw8qSmR1qDJA82jjh-HQEHw-xy6GZJkSpDnV94UtOWkkx6oSbC29-6OR9kDnBhWrrR9ywS0JTNBWKCVUctCwQ5ys3x9fqmReGXqEhClxsJrrw5xTA-0x8v790DJGhQryb5hioMzYjo-MaMBAWT9sJs31g", "width": 1080}], "place_id": "ChIJEY1fIZirNTER1aXKxaXh3XY", "plus_code": {"compound_code": "2RHR+X5 Hanoi, Ho\u00e0n Ki\u1ebfm, Hanoi, Vietnam", "global_code": "7PH72RHR+X5"}, "rating": 3.4, "reference": "ChIJEY1fIZirNTER1aXKxaXh3XY", "scope": "GOOGLE", "types": ["cafe", "store", "point_of_interest", "food", "establishment"], "user_ratings_total": 7, "vicinity": "16b Cao B\u00e1 Qu\u00e1t"}, {"geometry": {"location": {"lat": 21.03419419999999, "lng": 105.8335572}, "viewport": {"northeast": {"lat": 21.0355452802915, "lng": 105.8349066802915}, "southwest": {"lat": 21.0328473197085, "lng": 105.8322087197085}}}, "icon": "https://maps.gstatic.com/mapfiles/place_api/icons/cafe-71.png", "id": "e7c49feff0f612bdaa8958574495ab027e2b8439", "name": "Trung Nguy\u00ean Legend Caf\u00e9", "opening_hours": {"open_now": true}, "photos": [{"height": 900, "html_attributions": ["<a href=\"https://maps.google.com/maps/contrib/112771577750086499923/photos\">Trung Nguy\u00ean Legend Caf\u00e9</a>"], "photo_reference": "CmRaAAAAt-MUKxrRHd_C2zdgEuEwHConRrryBmmhVyKNEsqXH1TWlN9KTcwTA7WJBCuSXnL9hlFSQtxGapay5WEEBfy42CoMjXYDWqJcKALcaSRA_cNyiO3I0xNtFTGrMmvzGtclEhDmfs7hgo4gOToWwHSSduJAGhTKOI3Vlz7aXh7z1eii5RO3BaYi-A", "width": 900}], "place_id": "ChIJq15FsqGrNTERNtkUgqmRk3A", "plus_code": {"compound_code": "2RMM+MC Hanoi, Ho\u00e0n Ki\u1ebfm, Hanoi, Vietnam", "global_code": "7PH72RMM+MC"}, "price_level": 2, "rating": 4, "reference": "ChIJq15FsqGrNTERNtkUgqmRk3A", "scope": "GOOGLE", "types": ["cafe", "store", "point_of_interest", "food", "establishment"], "user_ratings_total": 157, "vicinity": "27-29 L\u00ea H\u1ed3ng Phong, \u0110i\u1ec7n B\u00e0n"}, {"geometry": {"location": {"lat": 21.03136589999999, "lng": 105.840513}, "viewport": {"northeast": {"lat": 21.0327154302915, "lng": 105.8418627802915}, "southwest": {"lat": 21.0300174697085, "lng": 105.8391648197085}}}, "icon": "https://maps.gstatic.com/mapfiles/place_api/icons/cafe-71.png", "id": "e3771ba8aa8de25be3ee87773505e6cfc57e190c", "name": "Lungta Center", "opening_hours": {"open_now": true}, "place_id": "ChIJu7wZAZirNTER3m1ln7o63rw", "plus_code": {"compound_code": "2RJR+G6 Hanoi, Ho\u00e0n Ki\u1ebfm, Hanoi, Vietnam", "global_code": "7PH72RJR+G6"}, "rating": 5, "reference": "ChIJu7wZAZirNTER3m1ln7o63rw", "scope": "GOOGLE", "types": ["cafe", "point_of_interest", "food", "establishment"], "user_ratings_total": 3, "vicinity": "28A Nguy\u1ec5n Tri Ph\u01b0\u01a1ng, \u0110i\u1ec7n B\u00e0n, Ba \u0110\u00ecnh"}, {"geometry": {"location": {"lat": 21.0322972, "lng": 105.8398122}, "viewport": {"northeast": {"lat": 21.0335766802915, "lng": 105.8410782802915}, "southwest": {"lat": 21.0308787197085, "lng": 105.8383803197085}}}, "icon": "https://maps.gstatic.com/mapfiles/place_api/icons/cafe-71.png", "id": "991477a9cb10ff08fc54c116e176b0745c1641cd", "name": "Highlands Coffee", "opening_hours": {"open_now": true}, "photos": [{"height": 3024, "html_attributions": ["<a href=\"https://maps.google.com/maps/contrib/110462833647985023332/photos\">Hyejin Son</a>"], "photo_reference": "CmRaAAAAbKpPxSIhLV0A1c_M9a2kosmtW6jxQHSclN28jmS8BMpJIxkPypa0cXqicu8hkLmPEI2SaYCTBUITPg6K6pccJeLtLvObp2_Nd-ADgjxWYXatMvG77wBZBEb6YQgs-oL-EhBSqx-Gj-kX7e9jI3A0YEiUGhQCI6Ptxqenvs2xcrfT-AKaxTY__A", "width": 4032}], "place_id": "ChIJp_i5qKKrNTEReWQkvx_eZhs", "plus_code": {"compound_code": "2RJQ+WW Hanoi, Ho\u00e0n Ki\u1ebfm, Hanoi, Vietnam", "global_code": "7PH72RJQ+WW"}, "price_level": 2, "rating": 4.4, "reference": "ChIJp_i5qKKrNTEReWQkvx_eZhs", "scope": "GOOGLE", "types": ["cafe", "store", "point_of_interest", "food", "establishment"], "user_ratings_total": 15, "vicinity": "28A \u0110i\u1ec7n Bi\u00ean Ph\u1ee7, \u0110i\u1ec7n B\u00e0n"}, {"geometry": {"location": {"lat": 21.0323243, "lng": 105.8398099}, "viewport": {"northeast": {"lat": 21.0335982802915, "lng": 105.8410693802915}, "southwest": {"lat": 21.0309003197085, "lng": 105.8383714197085}}}, "icon": "https://maps.gstatic.com/mapfiles/place_api/icons/cafe-71.png", "id": "ed4843c8857ca0738d3467f88b34fc1306f0c02e", "name": "Highlands Coffee Flag Tower", "opening_hours": {"open_now": true}, "photos": [{"height": 4032, "html_attributions": ["<a href=\"https://maps.google.com/maps/contrib/110473396129047446583/photos\">\uc724\uc740\ud0dc</a>"], "photo_reference": "CmRaAAAA-B5uEDR9F9i75WW9-3fcLkl2pu2AmuXkYGs1R7PMUl4uuqjNPJWc30xHv4bjIDTSAQGvvMqT88hZaxLR-36M8zyy2LUxd1R7tN_S1onQFkWR_13OWuVvY5XRrjyfy9wBEhBwCxWVbCJQqeNUvqFsFav2GhS49g3Ls-NhlPDOqi3CHZNUdXrKvA", "width": 3024}], "place_id": "ChIJr9F6r6KrNTERvQdNtiqADAU", "plus_code": {"compound_code": "2RJQ+WW Hanoi, Ho\u00e0n Ki\u1ebfm, Hanoi, Vietnam", "global_code": "7PH72RJQ+WW"}, "price_level": 2, "rating": 4.1, "reference": "ChIJr9F6r6KrNTERvQdNtiqADAU", "scope": "GOOGLE", "types": ["cafe", "point_of_interest", "food", "establishment"], "user_ratings_total": 579, "vicinity": "28A \u0110i\u1ec7n Bi\u00ean Ph\u1ee7, \u0110i\u1ec7n B\u00e0n"}, {"geometry": {"location": {"lat": 21.034603, "lng": 105.835804}, "viewport": {"northeast": {"lat": 21.0359506802915, "lng": 105.8371619302915}, "southwest": {"lat": 21.0332527197085, "lng": 105.8344639697085}}}, "icon": "https://maps.gstatic.com/mapfiles/place_api/icons/cafe-71.png", "id": "a1cef264e24796134110ec706aa6862e4baf30b4", "name": "Caf\u00e9 de Nam - Ms. Phuong", "place_id": "ChIJK64tMqKrNTERzSmvhqQnC-4", "plus_code": {"compound_code": "2RMP+R8 Hanoi, Ho\u00e0n Ki\u1ebfm, Hanoi, Vietnam", "global_code": "7PH72RMP+R8"}, "rating": 2.5, "reference": "ChIJK64tMqKrNTERzSmvhqQnC-4", "scope": "GOOGLE", "types": ["cafe", "point_of_interest", "food", "establishment"], "user_ratings_total": 2, "vicinity": "4, B\u00e0 Huy\u1ec7n Thanh Quan, P. Qu\u00e1n Th\u00e1nh, Q. Ba \u0110\u00ecnh, TP. H\u00e0 N\u1ed9i"}, {"geometry": {"location": {"lat": 21.0336234, "lng": 105.8383142},