[{"geometry": {"location": {"lat": 40.7556763, "lng": -73.98187229999999}, "viewport": {"northeast": {"lat": 40.75704538029149, "lng": -73.9806242697085}, "southwest": {"lat": 40.7543474197085, "lng": -73.9833222302915}}}, "icon": "https://maps.gstatic.com/mapfiles/place_api/icons/lodging-71.png", "id": "04aa52f640857c6e41231864bf86f4c4f32a60bd", "name": "Sofitel New York", "opening_hours": {"open_now": true}, "photos": [{"height": 2413, "html_attributions": ["<a href=\"https://maps.google.com/maps/contrib/103459388932264757090/photos\">Sofitel New York</a>"], "photo_reference": "CmRaAAAA2ZfufdzpchtKP0uRF7ntXNwwPdcU-OOoNTfyYls8a_zOJZqa4xvt-avKP5lzaUs3DEEJ0fpfxerJFCWv_pbmVMtW04eWxP5tXeZlPoDhKDUdeOfGRLu3a5oadQs78zF-EhBt2KXSZxqPwXUCjvWoP4qrGhS14-U1xv1ZCxLuy-1QjZh9RD5Eew", "width": 3620}], "place_id": "ChIJ5Zpl7_9YwokRFePhP7971nc", "plus_code": {"compound_code": "Q249+77 New York, United States", "global_code": "87G8Q249+77"}, "price_level": 3, "rating": 4.4, "reference": "ChIJ5Zpl7_9YwokRFePhP7971nc", "scope": "GOOGLE", "types": ["bar", "lodging", "restaurant", "point_of_interest", "food", "establishment"], "user_ratings_total": 1222, "vicinity": "45 West 44th Street, New York"}, {"geometry": {"location": {"lat": 40.7572822, "lng": -73.983625}, "viewport": {"northeast": {"lat": 40.7585840802915, "lng": -73.98231096970851}, "southwest": {"lat": 40.7558861197085, "lng": -73.98500893029151}}}, "icon": "https://maps.gstatic.com/mapfiles/place_api/icons/restaurant-71.png", "id": "47ae69c7303b494a6808796fa41c337c1e04b33f", "name": "Connolly's Pub & Restaurant", "opening_hours": {"open_now": false}, "photos": [{"height": 1192, "html_attributions": ["<a href=\"https://maps.google.com/maps/contrib/117191294768349069646/photos\">Connolly&#39;s</a>"], "photo_reference": "CmRaAAAA8T-KOsigbEMD5pkbQM2Z1vyB1XW-ITXs1xh40G47JCNVVbLDHPn2SflERsFw1x-oSK__tcmitePq-to8MUHqpDVqCdKqTrrJkN6g6OQSj9q9eeAEXCfSLpvCqbzDwBgpEhCxBO5c55DwlxB5AdERKsQoGhRv5OXfPu3TbFMSNKh98DvZB29rdw", "width": 2118}], "place_id": "ChIJAS6GeVVYwokRPfg8xt4nH-I", "plus_code": {"compound_code": "Q248+WG New York, United States", "global_code": "87G8Q248+WG"}, "price_level": 2, "rating": 4.3, "reference": "ChIJAS6GeVVYwokRPfg8xt4nH-I", "scope": "GOOGLE", "types": ["bar", "restaurant", "point_of_interest", "food", "establishment"], "user_ratings_total": 1618, "vicinity": "121 West 45th Street, New York"}, {"geometry": {"location": {"lat": 40.7594274, "lng": -73.9822296}, "viewport": {"northeast": {"lat": 40.7606168302915, "lng": -73.9809987197085}, "southwest": {"lat": 40.7579188697085, "lng": -73.9836966802915}}}, "icon": "https://maps.gstatic.com/mapfiles/place_api/icons/bar-71.png", "id": "c75efd4a556f4bd241d29086c1cb3f1da63bb896", "name": "48 Lounge", "opening_hours": {"open_now": false}, "photos": [{"height": 3024, "html_attributions": ["<a href=\"https://maps.google.com/maps/contrib/106658018927285258088/photos\">Anna Anna</a>"], "photo_reference": "CmRaAAAAW45gGfUjYq7J_GtjtThD9BKANnHLuXskgttpyOki-I1yE3Y3HJztCQzXtmpYjJRhfW2JMf0LYpEVQXbBxGoJXQ3LFbeAV7750DlJqv61IHybLrpu0fPc_70IOSbpSdpkEhDU8ORVaVcgiYAl26p7w0AUGhS25I5CmNSBKZ7VficBVZuhiADr1w", "width": 4032}], "place_id": "ChIJawhCRP9YwokRCsiWC3VwbjA", "plus_code": {"compound_code": "Q259+Q4 New York, United States", "global_code": "87G8Q259+Q4"}, "price_level": 3, "rating": 4.3, "reference": "ChIJawhCRP9YwokRCsiWC3VwbjA", "scope": "GOOGLE", "types": ["night_club", "bar", "restaurant", "point_of_interest", "food", "establishment"], "user_ratings_total": 228, "vicinity": "1221 AVENUE OF THE AMERICAS, West 48th Street, New York"}, {"geometry": {"location": {"lat": 40.75558100000001, "lng": -73.982226}, "viewport": {"northeast": {"lat": 40.7569911302915, "lng": -73.9808322197085}, "southwest": {"lat": 40.75429316970851, "lng": -73.98353018029151}}}, "icon": "https://maps.gstatic.com/mapfiles/place_api/icons/restaurant-71.png", "id": "068774d0ac17b67e0ccac7af48f04ad0a48157e2", "name": "Forty Four", "opening_hours": {"open_now": false}, "photos": [{"height": 3024, "html_attributions": ["<a href=\"https://maps.google.com/maps/contrib/117524934226640350935/photos\">Emily Mathieson</a>"], "photo_reference": "CmRaAAAAEHSXuZ3XpZWrG06JJZbVJ_1Dm_V6vodN-xSHOZLGpBjaP7RO6q_B6BXW-H4zmAXMoCSp-QhTKn9YfGs8Ub2xHme3oTVKO33sy2Vpe7kBTsZ7GQiOnmfP2dO9Ff4J7Y1fEhAHDtGkRZeR9BRieVSzXqHyGhTvGuuawRgB4J8Ppus6faXwjoZ_NA", "width": 4032}], "place_id": "ChIJpSMN7_9YwokR08ijxqMwgzA", "plus_code": {"compound_code": "Q249+64 New York, United States", "global_code": "87G8Q249+64"}, "price_level": 3, "rating": 3.9, "reference": "ChIJpSMN7_9YwokR08ijxqMwgzA", "scope": "GOOGLE", "types": ["bar", "restaurant", "point_of_interest", "food", "establishment"], "user_ratings_total": 56, "vicinity": "44 West 44th Street, New York"}, {"geometry": {"location": {"lat": 40.760533, "lng": -73.97739700000001}, "viewport": {"northeast": {"lat": 40.7617865302915, "lng": -73.97614666970848}, "southwest": {"lat": 40.7590885697085, "lng": -73.9788446302915}}}, "icon": "https://maps.gstatic.com/mapfiles/place_api/icons/restaurant-71.png", "id": "5d08e57330ecc48a64e63ddd5bc0ba93ffad577a", "name": "21 Club", "opening_hours": {"open_now": false}, "photos": [{"height": 1997, "html_attributions": ["<a href=\"https://maps.google.com/maps/contrib/100691634387600446654/photos\">21 Club</a>"], "photo_reference": "CmRaAAAAN2nKi3miq2p2-a5DxaASs33E8yV4wqkyIclLGxP0ZhaDRUPn5qogd-_osovMRL_xyHzYza4NL5MdZkzXVzS6f05LT7-nEuPwEw4nEZGzoLNl_XNkqYgCAyZTCEejTB-_EhACOO9kfqT2DE9bZtwB8EN5GhTOmismynUS7_JsNwqgNkbSPFeJIw", "width": 3000}], "place_id": "ChIJpZepXflYwokRNuSe6xAwprw", "plus_code": {"compound_code": "Q26F+62 New York, United States", "global_code": "87G8Q26F+62"}, "price_level": 4, "rating": 4.4, "reference": "ChIJpZepXflYwokRNuSe6xAwprw", "scope": "GOOGLE", "types": ["bar", "restaurant", "point_of_interest", "food", "establishment"], "user_ratings_total": 597, "vicinity": "21 West 52nd Street, New York"}, {"geometry": {"location": {"lat": 40.76032319999999, "lng": -73.98856839999999}, "viewport": {"northeast": {"lat": 40.76156943029149, "lng": -73.98729846970849}, "southwest": {"lat": 40.7588714697085, "lng": -73.9899964302915}}}, "icon": "https://maps.gstatic.com/mapfiles/place_api/icons/restaurant-71.png", "id": "2fe56a72e0e24d7256d32f689bdc1677115ac2fd", "name": "Scarlatto", "opening_hours": {"open_now": false}, "photos": [{"height": 2048, "html_attributions": ["<a href=\"https://maps.google.com/maps/contrib/109217010049429728198/photos\">Scarlatto</a>"], "photo_reference": "CmRaAAAAKZUAKYmryz-DzObQe73wbfLSqLwED3mbzJnTTxKPCS78KLPK46Owgz-g97EDBLZrz9R_KcTn58khBWlT3voPOs-1ylLRap8feMAh9yvZNIQDIRerWopLYdPpEHCCESSlEhC0EZlEG6dPPoM3PzbQKOzWGhRS29qQ-g60TwCHB_5uV2PqUOwgEA", "width": 1536}], "place_id": "ChIJN5EnLlRYwokRounHpLhSMQE", "plus_code": {"compound_code": "Q266+4H New York, United States", "global_code": "87G8Q266+4H"}, "price_level": 3, "rating": 4.2, "reference": "ChIJN5EnLlRYwokRounHpLhSMQE", "scope": "GOOGLE", "types": ["restaurant", "bar", "point_of_interest", "food", "establishment"], "user_ratings_total": 253, "vicinity": "317 West 46th Street, New York"}, {"geometry": {"location": {"lat": 40.755551, "lng": -73.989597}, "viewport": {"northeast": {"lat": 40.75687028029149, "lng": -73.9882699697085}, "southwest": {"lat": 40.75417231970849, "lng": -73.9909679302915}}}, "icon": "https://maps.gstatic.com/mapfiles/place_api/icons/restaurant-71.png", "id": "28df6312f117f365f0e7e1793d572bea9774b64c", "name": "Inakaya NY", "opening_hours": {"open_now": false}, "photos": [{"height": 3648, "html_attributions": ["<a href=\"https://maps.google.com/maps/contrib/116400130476438113335/photos\">Inakaya NY</a>"], "photo_reference": "CmRZAAAApdXBLu2_nsRRIyQFgGn_mIL9DS-UDhAaNWKPpU0I7xTxFMtMtF8F4wgua_9FiamCY2pVwDt17SdXiWc7MzDEcW9f9z8OGYH9OGokryEpJJJPgcFnMhFe4iy6k3zs2FtKEhBHpP7wEQ2rPezpc_XQmeO1GhQ2KxupfLQDQuxvuqlPPWoNfI1n-Q", "width": 5472}], "place_id": "ChIJt2w8pqxZwokRP8t7c2IA7Yw", "plus_code": {"compound_code": "Q246+65 New York, United States", "global_code": "87G8Q246+65"}, "price_level": 3, "rating": 4.3, "reference": "ChIJt2w8pqxZwokRP8t7c2IA7Yw", "scope": "GOOGLE", "types": ["bar", "restaurant", "point_of_interest", "food", "establishment"], "user_ratings_total": 472, "vicinity": "231 West 40th Street, New York"}, {"geometry": {"location": {"lat": 40.7594099, "lng": -73.98222}, "viewport": {"northeast": {"lat": 40.7606587802915, "lng": -73.9802762697085}, "southwest": {"lat": 40.7579608197085, "lng": -73.9829742302915}}}, "icon": "https://maps.gstatic.com/mapfiles/place_api/icons/restaurant-71.png", "id": "3584843e0761b8fff5fe01499e927ba644e52445", "name": "Del Frisco's Double Eagle Steakhouse", "opening_hours": {"open_now": false}, "photos": [{"height": 1363, "html_attributions": ["<a href=\"https://maps.google.com/maps/contrib/113759600496570974304/photos\">Del Frisco&#39;s Double Eagle Steakhouse</a>"], "photo_reference": "CmRaAAAA0d973GuV4ues8KPLGlg_MKfdIp2lkqD-8hIcCIsuNWqU81KcrS2ahcNxkGU2nM5-454omMTfgFxRgdBqBAapfpnzGktZNmBmgdKPzXmWgwoY7VJViSHXWDvkQjuVYWvFEhAYhpLba07IaPs6mVYsCwc6GhRXWVrFK9IG1PlbgPeufDFXvuc_mg", "width": 2048}], "place_id": "ChIJE1bnSP9YwokRDK7Zxnt23gE", "plus_code": {"compound_code": "Q259+Q4 New York, United States", "global_code": "87G8Q259+Q4"}, "price_level": 4, "rating": 4.5, "reference": "ChIJE1bnSP9YwokRDK7Zxnt23gE", "scope": "GOOGLE", "types": ["bar", "restaurant", "point_of_interest", "food", "establishment"], "user_ratings_total": 2454, "vicinity": "1221 6th Avenue, New York"}, {"geometry": {"location": {"lat": 40.7654454, "lng": -73.9805358}, "viewport": {"northeast": {"lat": 40.7667132802915, "lng": -73.9790216197085}, "southwest": {"lat": 40.7640153197085, "lng": -73.98171958029151}}}, "icon": "https://maps.gstatic.com/mapfiles/place_api/icons/restaurant-71.png", "id": "4f6d1cf09903e01de367af1b3db46a56628f9851", "name": "Trattoria Dell'Arte", "opening_hours": {"open_now": false}, "photos": [{"height": 2250, "html_attributions": ["<a href=\"https://maps.google.com/maps/contrib/105303505373661530610/photos\">Hauser Quaid Zzyzx</a>"], "photo_reference": "CmRaAAAAIKz5RQG9_A3HrjbQ0Bq5MmW_ywmBkVVRlxDjEZir0bPfpsGzs0ciLRCEmY0d0xxFjjX5k13sMAfsTPiyeoObbGpfLYFciR7qtY849naVNgcQNHoqnPrRZtHkRJNDXOBjEhCN0BTNvbeJaKbezbu-GjGxGhTQB53ZHsvyUOiKj4dr-NKYRWCilg", "width": 4000}], "place_id": "ChIJNaoHnvdYwokRFxwsSD4urZg", "plus_code": {"compound_code": "Q289+5Q New York, United States", "global_code": "87G8Q289+5Q"}, "price_level": 3, "rating": 4.4, "reference": "ChIJNaoHnvdYwokRFxwsSD4urZg", "scope": "GOOGLE", "types": ["bar", "restaurant", "point_of_interest", "food", "establishment"], "user_ratings_total": 954, "vicinity": "900 7th Avenue, New York"}, {"geometry": {"location": {"lat": 40.755587, "lng": -73.98752999999999}, "viewport": {"northeast": {"lat": 40.7568666302915, "lng": -73.9860966697085}, "southwest": {"lat": 40.7541686697085, "lng": -73.98879463029151}}}, "icon": "https://maps.gstatic.com/mapfiles/place_api/icons/restaurant-71.png", "id": "e65cfc8bb0273851d86190dbb17844a316f44933", "name": "Red Lobster", "opening_hours": {"open_now": false}, "photos": [{"height": 2304, "html_attributions": ["<a href=\"https://maps.google.com/maps/contrib/105628057370019574017/photos\">Saurabh Rakhunde</a>"], "photo_reference": "CmRaAAAA7dlMRu851al-1oeArTC0O9f0M8NbSRRtTAxmfygl2tW9MxFkef597R2NneH2a6F9fgPxOBbiOMfuqDlyDBjAsWDKgV2pxnH7ysRpb0OWE5reYLyXpgg2qjKv6JMzAZGuEhBoCcjjYCuIXiWjKuJrf1ZxGhRnMCpl5HvVuS4Fnc6dCl0I5HVRiw", "width": 4096}], "place_id": "ChIJc4euylRYwokRnweuR3UzKYI", "plus_code": {"compound_code": "Q246+6X New York, United States", "global_code": "87G8Q246+6X"}, "price_level": 2, "rating": 4.1, "reference": "ChIJc4euylRYwokRnweuR3UzKYI", "scope": "GOOGLE", "types": ["bar", "restaurant", "point_of_interest", "food", "establishment"], "user_ratings_total": 4048, "vicinity": "Five Times Square, 5, New York"}, {"geometry": {"location": {"lat": 40.7595183, "lng": -73.9847419}, "viewport": {"northeast": {"lat": 40.7607717802915, "lng": -73.98334786970848}, "southwest": {"lat": 40.7580738197085, "lng": -73.9860458302915}}}, "icon": "https://maps.gstatic.com/mapfiles/place_api/icons/restaurant-71.png", "id": "1a7446d83a402d9d788f3a763a0db945c2e0c201", "name": "Olive Garden Italian Restaurant", "opening_hours": {"open_now": false}, "photos": [{"height": 2358, "html_attributions": ["<a href=\"https://maps.google.com/maps/contrib/109827833619574735331/photos\">Lemuel Alberdi</a>"], "photo_reference": "CmRaAAAAJv3zDI0HEtRPrEI3WA_avIYJk4eSI5YYn4iCeH32FRULhTD3txfi2vNjBkHoW8mTMdBpa1UwotB4D1CblhBZVKR6AQzVPUGPlDSCi3iLH46vnVXGlIYrh81wTWfywjQ9EhA4qT_QkcLG6KKu9p-JCbY9GhSvCPOWIMmRYriIGppW7t2gfIXXOQ", "width": 4192}], "place_id": "ChIJM3wn3VVYwokRvu2kbqBKUsM", "plus_code": {"compound_code": "Q258+R4 New York, United States", "global_code": "87G8Q258+R4"}, "price_level": 2, "rating": 4.1, "reference": "ChIJM3wn3VVYwokRvu2kbqBKUsM", "scope": "GOOGLE", "types": ["bar", "meal_takeaway", "restaurant", "point_of_interest", "food", "establishment"], "user_ratings_total": 3119, "vicinity": "2, New York"}, {"geometry": {"location": {"lat": 40.7589876, "lng": -73.9863247}, "viewport": {"northeast": {"lat": 40.76007248029151, "lng": -73.98503771970849}, "southwest": {"lat": 40.75737451970851, "lng": -73.98773568029151}}}, "icon": "https://maps.gstatic.com/mapfiles/place_api/icons/restaurant-71.png", "id": "9c6383d1e9b5667441714b4f2c7bc85560a58431", "name": "The View Restaurant & Lounge", "opening_hours": {"open_now": false}, "photos": [{"height": 509, "html_attributions": ["<a href=\"https://maps.google.com/maps/contrib/105303505373661530610/photos\">Hauser Quaid Zzyzx</a>"], "photo_reference": "CmRaAAAABO5makAy2LBYvQUsqHhHru43-TM1GRy4fCiJOxBOM1R3tH1pLT0ZsGUIbivl6Yle5Lhvttg_FAptyOTpToQ3XOe9BvzUqC7k0I71mkzOASwzwh9Zb2NczYQ6g8UNmNfuEhCM6xkjuTjnv70RkpSoR1c-GhTSGFYaFb7dHy2bH-KxNAeERU_Qig", "width": 905}], "place_id": "ChIJiVXoAFVYwokRaaIaoxYZBeQ", "plus_code": {"compound_code": "Q257+HF New York, United States", "global_code": "87G8Q257+HF"}, "price_level": 3, "rating": 4.1, "reference": "ChIJiVXoAFVYwokRaaIaoxYZBeQ", "scope": "GOOGLE", "types": ["night_club", "bar", "restaurant", "point_of_interest", "food", "establishment"], "user_ratings_total": 1989, "vicinity": "1535 Broadway, New York"}, {"geometry": {"location": {"lat": 40.76073210000001, "lng": -73.9813891}, "viewport": {"northeast": {"lat": 40.7622391302915, "lng": -73.9799555697085}, "southwest": {"lat": 40.75954116970851, "lng": -73.9826535302915}}}, "icon": "https://maps.gstatic.com/mapfiles/place_api/icons/restaurant-71.png", "id": "ece1ed6ac0aa2df9482cabe369f490553013f378", "name": "The Capital Grille", "opening_hours": {"open_now": false}, "photos": [{"height": 946, "html_attributions": ["<a href=\"https://maps.google.com/maps/contrib/114247032184063224295/photos\">Mike Hiwaymann</a>"], "photo_reference": "CmRaAAAAqQuFoFWT8eSTVV6mHqF6gC6FgjRYY5IEQNPY-HNOHl71ty97OTJKGp1z8FuGzhyHrFVtWFpugy1Q7133iC7PLuhq4EnBFp_iNiFpjPalvj1CRSNNEQq1OyihNqCMMxUwEhC1tMlyqi8vGErreYZt6FL9GhTgmr9oGIAIpSAMq4Jk1GAIyVaBlg", "width": 1476}], "place_id": "ChIJkQQlwvhYwokR1Grog17qfew", "plus_code": {"compound_code": "Q269+7C New York, United States", "global_code": "87G8Q269+7C"}, "price_level": 4, "rating": 4.5, "reference": "ChIJkQQlwvhYwokR1Grog17qfew", "scope": "GOOGLE", "types": ["bar", "restaurant", "point_of_interest", "food", "establishment"], "user_ratings_total": 777, "vicinity": "120 West 51st Street, New York"}, {"geometry": {"location": {"lat": 40.7565383, "lng": -73.9886358}, "viewport": {"northeast": {"lat": 40.7579654802915, "lng": -73.9872296697085}, "southwest": {"lat": 40.7552675197085, "lng": -73.9899276302915}}}, "icon": "https://maps.gstatic.com/mapfiles/place_api/icons/bar-71.png", "id": "01009f0e3898c4c6056910756b6e103caf855106", "name": "Dave & Buster's", "opening_hours": {"open_now": false}, "photos": [{"height": 3840, "html_attributions": ["<a href=\"https://maps.google.com/maps/contrib/103610702035410952180/photos\">aperi media</a>"], "photo_reference": "CmRaAAAACbflpO6sH8oDfXn9dk6m6HU1999CtZgKUaDQPGY-ec8AX6H79hGQxxZIxAXdmVlfyIeDfIl-K1SRNI0wfoP1OBkz1vSMj6L-ExWFlSfPgdo_2aXbmk6ld8sBfsk9JNciEhAAeL5pmMsaEl5L7BNCcS98GhQ9rjX6KhCRtZ9g29LuvAVhIR7_WA", "width": 5760}], "place_id": "ChIJ8VOfr1RYwokRdgk5I-NvtfE", "plus_code": {"compound_code": "Q246+JG New York, United States", "global_code": "87G8Q246+JG"}, "price_level": 2, "rating": 4.1, "reference": "ChIJ8VOfr1RYwokRdgk5I-NvtfE", "scope": "GOOGLE", "types": ["bar", "restaurant", "point_of_interest", "food", "establishment"], "user_ratings_total": 4674, "vicinity": "234 West 42nd Street 3rd floor, New York"}, {"geometry": {"location": {"lat": 40.7615691, "lng": -73.98180479999999}, "viewport": {"northeast": {"lat": 40.7627827802915, "lng": -73.98044491970849}, "southwest": {"lat": 40.7600848197085, "lng": -73.9831428802915}}}, "icon": "https://maps.gstatic.com/mapfiles/place_api/icons/restaurant-71.png", "id": "ad0a76f04ef4567ae3420ffa1881057b1f8180a7", "name": "Le Bernardin", "opening_hours": {"open_now": false}, "photos": [{"height": 746, "html_attributions": ["<a href=\"https://maps.google.com/maps/contrib/105303505373661530610/photos\">Hauser Quaid Zzyzx</a>"], "photo_reference": "CmRaAAAAmPgws_z9z6GlGwdkgZeGR7f47P_CFsx6HL19MPfCOiM-AKggoLfAYuAyonBOLBeVhYTtB-x9bKmarmaEWcIoB4DNzRNHmVG2DY6K1W7zVATZ8Sh41PbFGzsMdm4_invuEhDjTggEwYAUf_5Cgor4j4FhGhT1-LcHrQU4f5U8OnsQMG12H_8WbQ", "width": 1095}], "place_id": "ChIJVSKXkPhYwokRVgXdrRfFxh0", "plus_code": {"compound_code": "Q269+J7 New York, United States", "global_code": "87G8Q269+J7"}, "price_level": 4, "rating": 4.7, "reference": "ChIJVSKXkPhYwokRVgXdrRfFxh0", "scope": "GOOGLE", "types": ["bar", "restaurant", "point_of_interest", "food", "establishment"], "user_ratings_total": 1668, "vicinity": "155 West 51st Street, New York"}, {"geometry": {"location": {"lat": 40.760804, "lng": -73.98983240000001}, "viewport": {"northeast": {"lat": 40.7620700802915, "lng": -73.9885433697085}, "southwest": {"lat": 40.7593721197085, "lng": -73.9912413302915}}}, "icon": "https://maps.gstatic.com/mapfiles/place_api/icons/restaurant-71.png", "id": "bdd05b51db07fd5703139cbc776ab5aafe092a93", "name": "Becco", "opening_hours": {"open_now": false}, "photos": [{"height": 427, "html_attributions": ["<a href=\"https://maps.google.com/maps/contrib/107101338468833517216/photos\">Becco</a>"], "photo_reference": "CmRaAAAA2ggOsXJx6UvVqV6ynC713DHghT7CQ0JcwmS-umD-dSDDKA5mdF3UD7WvgZPNM5C10YhdCl_kO1in2JTqponO7FkeNR6MEZjMNQAhsyTx2yzYTdcEdiw4Kw0kpcV4VIqZEhALNfgqaOSFGTlcdsFPYszIGhS-CDwHGuvmCxdclReGwuNzJOPPBQ", "width": 640}], "place_id": "ChIJndGJ5FNYwokRricJvhT0t1s", "plus_code": {"compound_code": "Q266+83 New York, United States", "global_code": "87G8Q266+83"}, "price_level": 2, "rating": 4.3, "reference": "ChIJndGJ5FNYwokRricJvhT0t1s", "scope": "GOOGLE", "types": ["bar", "restaurant", "point_of_interest", "food", "establishment"], "user_ratings_total": 1852, "vicinity": "355 West 46th Street, New York"}, {"geometry": {"location": {"lat": 40.75965860000001, "lng": -73.9783169}, "viewport": {"northeast": {"lat": 40.7609939802915, "lng": -73.97692056970848}, "southwest": {"lat": 40.7582960197085, "lng": -73.9796185302915}}}, "icon": "https://maps.gstatic.com/mapfiles/place_api/icons/restaurant-71.png", "id": "272a05bf7e5e75f169f739e56763221519152ceb", "name": "Del Frisco's Grille", "opening_hours": {"open_now": false}, "photos": [{"height": 497, "html_attributions": ["<a href=\"https://maps.google.com/maps/contrib/105303505373661530610/photos\">Hauser Quaid Zzyzx</a>"], "photo_reference": "CmRaAAAAvfm1gSJSkX-613595d4qbUTrf6xYIT9vk2eBouUQrfB0YY6TRRQFvsePm3-FzOYk97-konIrWrwcn4I4ZGT4Sv1KG5uDXzFINsvF-hBbCjbGd5ZsAH2NySB6DO5ePa52EhBwkbNDx8nFgYaUHRv18NmYGhRhf75N0M_9jEvds_DOBo7pHshaXQ", "width": 730}], "place_id": "ChIJ55dWS_lYwokRDVs8xyL3uDo", "plus_code": {"compound_code": "Q25C+VM New York, United States", "global_code": "87G8Q25C+VM"}, "price_level": 3, "rating": 4.3, "reference": "ChIJ55dWS_lYwokRDVs8xyL3uDo", "scope": "GOOGLE", "types": ["bar", "restaurant", "point_of_interest", "food", "establishment"], "user_ratings_total": 614, "vicinity": "50 Rockefeller Plaza, New York"}, {"geometry": {"location": {"lat": 40.7599972, "lng": -73.9867421}, "viewport": {"northeast": {"lat": 40.7613881302915, "lng": -73.98536246970849}, "southwest": {"lat": 40.7586901697085, "lng": -73.98806043029151}}}, "icon": "https://maps.gstatic.com/mapfiles/place_api/icons/restaurant-71.png", "id": "885da00b11ddeb73c9fef28fb50607128a6c9cc4", "name": "Trattoria Trecolori", "opening_hours": {"open_now": false}, "photos": [{"height": 1359, "html_attributions": ["<a href=\"https://maps.google.com/maps/contrib/105303505373661530610/photos\">Hauser Quaid Zzyzx</a>"], "photo_reference": "CmRaAAAApdvPh9o5poYvg-NuDAR6y8EZ1GbMK9uPfV6k9gME0LXRNVSOjseQZ0XeXMOTD6AL0nag5Y1S34m4dFRFfdZwJSvLlyX4RcJUS7Q9XQ4Dn838GbULAMlQcgbcZua6-Y5TEhCRe63_sYw786KhXyx769GuGhQtOEOzYNbaKOgjg5dpgjqtU2DeyQ", "width": 2047}], "place_id": "ChIJYepwLVRYwokRsvXclA3XFqo", "plus_code": {"compound_code": "Q257+X8 New York, United States", "global_code": "87G8Q257+X8"}, "price_level": 2, "rating": 4.4, "reference": "ChIJYepwLVRYwokRsvXclA3XFqo", "scope": "GOOGLE", "types": ["bar", "restaurant", "point_of_interest", "food", "establishment"], "user_ratings_total": 1134, "vicinity": "254 West 47th Street, New York"}, {"geometry": {"location": {"lat": 40.7649588, "lng": -73.98287429999999}, "viewport": {"northeast": {"lat": 40.7663431302915, "lng": -73.98154491970848}, "southwest": {"lat": 40.7636451697085, "lng": -73.98424288029149}}}, "icon": "https://maps.gstatic.com/mapfiles/place_api/icons/restaurant-71.png", "id": "a13bc6a5598988210cb36d14fcf4179e93fc4fd0", "name": "McGee's pub.", "opening_hours": {"open_now": false}, "photos": [{"height": 3024, "html_attributions": ["<a href=\"https://maps.google.com/maps/contrib/110799208783275748568/photos\">Reika Arata</a>"], "photo_reference": "CmRaAAAA3gD368iTWdpE6d_DJA611zI853R-WRtclnqx510uQjIJ8TjlXnser3qkSluldd6ggk106biNH-9z0yxvyHqbmCz_kJJT5kq9GYe8G3Ahrq7UdtjKXfan9FImGl8mzrU2EhB6p0y_bcZgihUcwhzMdC9HGhTxkWjiQFyZZmG7o8vUKEwY8smAbQ", "width": 4032}], "place_id": "ChIJ92Q_APhYwokR0Ct3Oz-9CAE", "plus_code": {"compound_code": "Q278+XV New York, United States", "global_code": "87G8Q278+XV"}, "price_level": 2, "rating": 4.2, "reference": "ChIJ92Q_APhYwokR0Ct3Oz-9CAE", "scope": "GOOGLE", "types": ["bar", "restaurant", "point_of_interest", "food", "establishment"], "user_ratings_total": 2283, "vicinity": "240 West 55th Street, New York"}, {"geometry": {"location": {"lat": 40.7589663, "lng": -73.98961729999999}, "viewport": {"northeast": {"lat": 40.7602981302915, "lng": -73.98834786970849}, "southwest": {"lat": 40.7576001697085, "lng": -73.9910458302915}}}, "icon": "https://maps.gstatic.com/mapfiles/place_api/icons/generic_business-71.png", "id": "fe35759ac2c4adda951e60ea9f7a911031f1c9a8", "name": "Birdland Jazz Club", "opening_hours": {"open_now": false}, "photos": [{"height": 3036, "html_attributions": ["<a href=\"https://maps.google.com/maps/contrib/114865963786223977244/photos\">Thom Craver</a>"], "photo_reference": "CmRaAAAA_7HmZF6jtNY9FqZlCRegHHEyBsakJqeBQSMKpkzruDSdmZX4hmFON6o-2BomJGi734qcEwGzcN3xtPQlpUFfHI1XArdricOSTo0UGlAv9m02_AjhTz3JunUatdxKbhWiEhCKAmx8XuQEVa-N9oRrN7KaGhRHmRxNhGznC18XEgsPPK2UGZ2wrA", "width": 4048}], "place_id": "ChIJdc9EhVNYwokR-naSYfm_Urc", "plus_code": {"compound_code": "Q256+H5 New York, United States", "global_code": "87G8Q256+H5"}, "price_level": 3, "rating": 4.6, "reference": "ChIJdc9EhVNYwokR-naSYfm_Urc", "scope": "GOOGLE", "types": ["night_club", "bar", "restaurant", "point_of_interest", "food", "establishment"], "user_ratings_total": 1175, "vicinity": "315 West 44th Street Suite 5402, New York"}, {"geometry": {"location": {"lat": 40.756421, "lng": -73.98428899999999}, "viewport": {"northeast": {"lat": 40.7578415802915, "lng": -73.98288696970849}, "southwest": {"lat": 40.7551436197085, "lng": -73.98558493029151}}}, "icon": "https://maps.gstatic.com/mapfiles/place_api/icons/restaurant-71.png", "id": "8b9cf44a8220731db34cabbfee5c2211b01a2ef7", "name": "The Long Room", "opening_hours": {"open_now": false}, "photos": [{"height": 2848, "html_attributions": ["<a href=\"https://maps.google.com/maps/contrib/113346659319109274687/photos\">The Long Room</a>"], "photo_reference": "CmRaAAAAFFIc2P4Utj9YoQPuFonBgV22-JUC5aoAU_dB5hxfdc0eJpST6I-_JgW5_TQlKwYQiFxc6Xhv_Vi8e8Ws-pqtF7vcSkPNhMIoinj0i0_8d5BS90R311vgm1PZeaoyOkdmEhCWYMFZKoT1sx5fS3k32ZPKGhRJnidH0wXniOdJVHRlywTKSETURA", "width": 4288}], "place_id": "ChIJWZVoalVYwokRnPIXV2adxKA", "plus_code": {"compound_code": "Q248+H7 New York, United States", "global_code": "87G8Q248+H7"}, "price_level": 2, "rating": 4.3, "reference": "ChIJWZVoalVYwokRnPIXV2adxKA", "scope": "GOOGLE", "types": ["bar", "restaurant", "point_of_interest", "food", "establishment"], "user_ratings_total": 406, "vicinity": "120 West 44th Street, New York"}, {"geometry": {"location": {"lat": 40.7641619, "lng": -73.9830573}, "viewport": {"northeast": {"lat": 40.76555363029149, "lng": -73.98167176970848}, "southwest": {"lat": 40.7628556697085, "lng": -73.9843697302915}}}, "icon": "https://maps.gstatic.com/mapfiles/place_api/icons/restaurant-71.png", "id": "65a3d3d6e517d46ffa4c179c64ac69d5c8bbee93", "name": "The Three Monkeys", "opening_hours": {"open_now": false}, "photos": [{"height": 447, "html_attributions": ["<a href=\"https://maps.google.com/maps/contrib/115784538221411487113/photos\">The Three Monkeys</a>"], "photo_reference": "CmRaAAAAjZMluTBHpLL-EQcYC_gZ6vxnIf7bGjMsBOOiF8Bq4MacrL2PXXZTc4-fX7eb-CiKh_QpJdxbPuAKw6W4lAi56GZ_Injt-dY3r8abvnPUW0g1QQe57Src5XsiDDj_q_O2EhBhOETyYiuQ7G8u_9K8W9JBGhTULwt415Oo2gvj3Dr8dNvXCthZZg", "width": 626}], "place_id": "ChIJR32J4VdYwokR5SGYbdohMnU", "plus_code": {"compound_code": "Q278+MQ New York, United States", "global_code": "87G8Q278+MQ"}, "price_level": 2, "rating": 4.2, "reference": "ChIJR32J4VdYwokR5SGYbdohMnU", "scope": "GOOGLE", "types": ["bar", "restaurant", "point_of_interest", "food", "establishment"], "user_ratings_total": 877, "vicinity": "236 West 54th Street, New York"}, {"geometry": {"location": {"lat": 40.7583364, "lng": -73.9841591}, "viewport": {"northeast": {"lat": 40.7596322802915, "lng": -73.9828408697085}, "southwest": {"lat": 40.7569343197085, "lng": -73.9855388302915}}}, "icon": "https://maps.gstatic.com/mapfiles/place_api/icons/restaurant-71.png", "id": "5fe3ed92868cdeadd525753415272b01df106854", "name": "Havana Central Times Square", "opening_hours": {"open_now": false}, "photos": [{"height": 608, "html_attributions": ["<a href=\"https://maps.google.com/maps/contrib/107785244119404185612/photos\">Havana Central Times Square</a>"], "photo_reference": "CmRaAAAAorwjZZAM5z61MvyBhgbnJEVv4CF29jn8cD08tdN5lHsJA5tzcE2CEDXQmlKbfQz1VWG9E03Zhuc0Ub7xqxQKw2I3i2-Q6I9UZhUX8slAtkld_PR2pF9scuS2ccx6LO7AEhAMMT4R-uMecsyF2JoNvDBQGhRA865m-LdikTRA7ai4zBkbE6FZxw", "width": 1080}], "place_id": "ChIJy0KKmVVYwokRyab_FcJzFA0", "plus_code": {"compound_code": "Q258+88 New York, United States", "global_code": "87G8Q258+88"}, "price_level": 2, "rating": 4.3, "reference": "ChIJy0KKmVVYwokRyab_FcJzFA0", "scope": "GOOGLE", "types": ["bar", "restaurant", "point_of_interest", "food", "establishment"], "user_ratings_total": 2544, "vicinity": "151 West 46th Street, New York"}, {"geometry": {"location": {"lat": 40.7643119, "lng": -73.9785888}, "viewport": {"northeast": {"lat": 40.76556448029149, "lng": -73.9773477197085}, "southwest": {"lat": 40.7628665197085, "lng": -73.98004568029151}}}, "icon": "https://maps.gstatic.com/mapfiles/place_api/icons/restaurant-71.png", "id": "8773072ab5bb98ac9271fa4b51c2d401781aab60", "name": "burger joint", "opening_hours": {"open_now": false}, "photos": [{"height": 1498, "html_attributions": ["<a href=\"https://maps.google.com/maps/contrib/114907250043606089736/photos\">burger joint</a>"], "photo_reference": "CmRaAAAA7_yCFvSSPbSOuKMQmjOLAnav6plk4987TBDxwZqlM2nIErgIi8y-M-MHk8xvtfoJDIUsQ8mgrZNSWTZYAMsqInQiLXjOItqrx5VUTVY_YFuIXggunglXAM2bCK5JwLxFEhAej8MhP4HhSnPzeoaBgiPpGhSjVJvms2yxu_7FOhNhHIV5fluhTg", "width": 2048}], "place_id": "ChIJwfFb4flYwokRP78kZ3ER5a8", "plus_code": {"compound_code": "Q27C+PH New York, United States", "global_code": "87G8Q27C+PH"}, "price_level": 2, "rating": 4.3, "reference": "ChIJwfFb4flYwokRP78kZ3ER5a8", "scope": "GOOGLE", "types": ["bar", "restaurant", "point_of_interest", "food", "establishment"], "user_ratings_total": 3108, "vicinity": "119 West 56th Street, New York"}, {"geometry": {"location": {"lat": 40.76295569999999, "lng": -73.98409529999999}, "viewport": {"northeast": {"lat": 40.76435213029151, "lng": -73.98271131970849}, "southwest": {"lat": 40.76165416970851, "lng": -73.9854092802915}}}, "icon": "https://maps.gstatic.com/mapfiles/place_api/icons/restaurant-71.png", "id": "e6cc5a211f38ca77f809ddb90dea93c2256c2311", "name": "Victor's Cafe", "opening_hours": {"open_now": false}, "photos": [{"height": 1333, "html_attributions": ["<a href=\"https://maps.google.com/maps/contrib/100171034390552256576/photos\">Victor&#39;s Cafe</a>"], "photo_reference": "CmRaAAAAKLaqK5f9Cy2D4nC1CJqEbXS-Hn3-ilrd8hIfsmbZO_Kxoe3uPNjuTMbOJDuljKGBxsxcKLYFbLfNtSvOorJWkmKXn7ZkAj-7hNEGrd3bXLPgWfWA5eQIW4BlD9DVsMrHEhDNerzJyl31y1WJIGNyRiVPGhTopzUPcEBz_bHiKzai3104HXMrTg", "width": 2000}], "place_id": "ChIJv6RszFdYwokR-moeAHqLAhM", "plus_code": {"compound_code": "Q278+59 New York, United States", "global_code": "87G8Q278+59"}, "price_level": 3, "rating": 4.4, "reference": "ChIJv6RszFdYwokR-moeAHqLAhM", "scope": "GOOGLE", "types": ["night_club", "bar", "restaurant", "point_of_interest", "food", "establishment"], "user_ratings_total": 1102, "vicinity": "236 West 52nd Street, New York"}, {"geometry": {"location": {"lat": 40.75976409999999, "lng": -73.9823074}, "viewport": {"northeast": {"lat": 40.7611692802915, "lng": -73.98097916970849}, "southwest": {"lat": 40.7584713197085, "lng": -73.9836771302915}}}, "icon": "https://maps.gstatic.com/mapfiles/place_api/icons/restaurant-71.png", "id": "29edf42308637f247f09a53a2583790cfad56b46", "name": "Oceana Restaurant", "opening_hours": {"open_now": false}, "photos": [{"height": 471, "html_attributions": ["<a href=\"https://maps.google.com/maps/contrib/105303505373661530610/photos\">Hauser Quaid Zzyzx</a>"], "photo_reference": "CmRaAAAA1XEyNZVOeOjjiX4Or5_gtzGSmJjMgppz_xBouAkMwF_jZHJDHCNYc2Bc0axam0BYL_wXmxvfWCrM9XZHaj4xgNHObuQO_zQatIjALOzM0nhGiTSBTudf36a_oQBkQFnmEhA4bJRxwjtIhN63BsXqNx-_GhQWSdtXqHTdcKbJsN1y4lXyqZHIzQ", "width": 629}], "place_id": "ChIJ34SOS_9YwokR7vXpNdS9tZ8", "plus_code": {"compound_code": "Q259+W3 New York, United States", "global_code": "87G8Q259+W3"}, "price_level": 4, "rating": 4.4, "reference": "ChIJ34SOS_9YwokR7vXpNdS9tZ8", "scope": "GOOGLE", "types": ["bar", "restaurant", "point_of_interest", "food", "establishment"], "user_ratings_total": 576, "vicinity": "120 West 49th Street, New York"}, {"geometry": {"location": {"lat": 40.76088499999999, "lng": -73.9863}, "viewport": {"northeast": {"lat": 40.7621779302915, "lng": -73.98499311970849}, "southwest": {"lat": 40.7594799697085, "lng": -73.98769108029151}}}, "icon": "https://maps.gstatic.com/mapfiles/place_api/icons/restaurant-71.png", "id": "d13707502a3c14e15c6795c720fd496a55978fa0", "name": "La Masseria", "opening_hours": {"open_now": false}, "photos": [{"height": 2665, "html_attributions": ["<a href=\"https://maps.google.com/maps/contrib/105303505373661530610/photos\">Hauser Quaid Zzyzx</a>"], "photo_reference": "CmRaAAAAGHdbVA2jbKdiVJ0tM0RgLoK7b_BLZhHwPypC9pSkwcG9PkGxefMCrrU-qzVbHoa7frDed-Luyxe1MLBkXCN6EkEwv-Y26Zx5IWF1oABdJ1G_qyGX5hsw-lYIIWHI4l8xEhADjCMeYMG0zBttKZDqb3L5GhTbjSWPf5gd3ZhgkpPVt_UI4lIXxQ", "width": 3999}], "place_id": "ChIJjfIegVZYwokRyqdwvzBC27s", "plus_code": {"compound_code": "Q267+9F New York, United States", "global_code": "87G8Q267+9F"}, "price_level": 3, "rating": 4.4, "reference": "ChIJjfIegVZYwokRyqdwvzBC27s", "scope": "GOOGLE", "types": ["bar", "restaurant", "point_of_interest", "food", "establishment"], "user_ratings_total": 572, "vicinity": "235 West 48th Street, New York"}, {"geometry": {"location": {"lat": 40.759144, "lng": -73.995603}, "viewport": {"northeast": {"lat": 40.7605162802915, "lng": -73.9943530697085}, "southwest": {"lat": 40.7578183197085, "lng": -73.99705103029152}}}, "icon": "https://maps.gstatic.com/mapfiles/place_api/icons/lodging-71.png", "id": "e6c49510aa7bb096fc9494cc60090ab72ad0fe80", "name": "YOTEL New York", "opening_hours": {"open_now": true}, "photos": [{"height": 5304, "html_attributions": ["<a href=\"https://maps.google.com/maps/contrib/100774973307340325710/photos\">YOTEL New York</a>"], "photo_reference": "CmRaAAAAVh4uHJ1DvFLGSSVnZuinNFM1uwtifTCh4pjYMA6JLb-uwLM0vGYCcEZLK5uZ4DAzrAd8OCmjnxeCsEm98J4p2PkPDFzwsCIukWwpKEdFmYyYE0JWlcjL4ZmAbhh8knyFEhCdNnTRdgb-IqLosThGAbRJGhRNu3AsAVLxc4XizkE6T-LfB6aDrQ", "width": 7952}], "place_id": "ChIJpY9Tg01YwokRCr_aQpDrqgk", "plus_code": {"compound_code": "Q253+MQ New York, United States", "global_code": "87G8Q253+MQ"}, "rating": 4.2, "reference": "ChIJpY9Tg01YwokRCr_aQpDrqgk", "scope": "GOOGLE", "types": ["bar", "lodging", "restaurant", "point_of_interest", "food", "establishment"], "user_ratings_total": 4839, "vicinity": "570 10th Avenue, New York"}, {"geometry": {"location": {"lat": 40.7592896, "lng": -73.9775348}, "viewport": {"northeast": {"lat": 40.7607339802915, "lng": -73.9761581697085}, "southwest": {"lat": 40.7580360197085, "lng": -73.9788561302915}}}, "icon": "https://maps.gstatic.com/mapfiles/place_api/icons/restaurant-71.png", "id": "5ff6449fe699100cc1f40f6c5d8f92fc63931c11", "name": "Bill's Bar & Burger", "opening_hours": {"open_now": false}, "photos": [{"height": 751, "html_attributions": ["<a href=\"https://maps.google.com/maps/contrib/115576723388811455479/photos\">Bill&#39;s Bar &amp; Burger</a>"], "photo_reference": "CmRaAAAAsEdgH4c3UymZSi_9TYm3M_WkPAoGLuf5smTL3lfj-GWqTqqK3huIkijEaEpTWAoru39ZJgRYoPPCSQYYXLOaqdM_23iQ--cutc1ew9i_O5KLoRTpDs1R0geHtr95R12FEhDqoikMYnR-Ehl3GBpU-pyDGhRvLhwu31RYFmLPYWiYaRliT-3sng", "width": 1336}], "place_id": "ChIJnXTBVPlYwokRaH_hnZ7myUc", "plus_code": {"compound_code": "Q25C+PX New York, United States", "global_code": "87G8Q25C+PX"}, "price_level": 2, "rating": 4.2, "reference": "ChIJnXTBVPlYwokRaH_hnZ7myUc", "scope": "GOOGLE", "types": ["bar", "restaurant", "point_of_interest", "food", "establishment"], "user_ratings_total": 2299, "vicinity": "16 West 51st Street, New York"}, {"geometry": {"location": {"lat": 40.75944510000001, "lng": -73.9894726}, "viewport": {"northeast": {"lat": 40.7608601302915, "lng": -73.9880754197085}, "southwest": {"lat": 40.7581621697085, "lng": -73.9907733802915}}}, "icon": "https://maps.gstatic.com/mapfiles/place_api/icons/generic_business-71.png", "id": "4b491f5482f2eeb527293f28d65d37cf585109eb", "name": "Flashdancers NYC", "opening_hours": {"open_now": false}, "photos": [{"height": 1365, "html_attributions": ["<a href=\"https://maps.google.com/maps/contrib/113161819756798884186/photos\">Flashdancers NYC</a>"], "photo_reference": "CmRaAAAApziE_UJ2UkWC5Qc6X0ndSUUY4BsuKXo-TOJtaRkgDulyU3zfLGqSh6F3JvPijAtN4qVGKpLk0LU9PJeDB_tzB-GKLEyAZtCbQ5NB-kp5MaAyy_YurZwCC-qh9ejBi8ZREhAQQYGh5N2RNmg1jtPwsGXQGhTxEViG_OSjaIdRug6qx0PKVO69lA", "width": 2048}], "place_id": "ChIJgVaT1VdYwokRtR8BSg5Nueo", "plus_code": {"compound_code": "Q256+Q6 New York, United States", "global_code": "87G8Q256+Q6"}, "price_level": 4, "rating": 3.9, "reference": "ChIJgVaT1VdYwokRtR8BSg5Nueo", "scope": "GOOGLE", "types": ["night_club", "bar", "point_of_interest", "establishment"], "user_ratings_total": 140, "vicinity": "320 West 45th Street, New York"}, {"geometry": {"location": {"lat": 40.75847099999999, "lng": -73.99007999999999}, "viewport": {"northeast": {"lat": 40.7596952802915, "lng": -73.9887001697085}, "southwest": {"lat": 40.7569973197085, "lng": -73.99139813029151}}}, "icon": "https://maps.gstatic.com/mapfiles/place_api/icons/restaurant-71.png", "id": "f636f986349f9b025a619a0128b043bd84f7fd6c", "name": "Hakkasan", "opening_hours": {"open_now": false}, "photos": [{"height": 2665, "html_attributions": ["<a href=\"https://maps.google.com/maps/contrib/105303505373661530610/photos\">Hauser Quaid Zzyzx</a>"], "photo_reference": "CmRaAAAA6nhpAFh5_wvbu7iVUOHvVZea_G0c63zHQ-fEn6WxjWmWztEOTx5_WE2-EefDQJkbvskzTkV_tNL1ueXpMa0p_vnh0Rm10ctokDYaSTAp4qHlaCikEg8m91SRiToHM14dEhDSPscjKyZA92OqQj_DHsVxGhQ0XgBZe2fdCKsmM__SjH5wB5qXUQ", "width": 3999}], "place_id": "ChIJP_pgdFNYwokRMY0bfj249WE", "plus_code": {"compound_code": "Q255+9X New York, United States", "global_code": "87G8Q255+9X"}, "price_level": 3, "rating": 4.3, "reference": "ChIJP_pgdFNYwokRMY0bfj249WE", "scope": "GOOGLE", "types": ["bar", "restaurant", "point_of_interest", "food", "establishment"], "user_ratings_total": 675, "vicinity": "311 West 43rd Street, New York"}, {"geometry": {"location": {"lat": 40.755633, "lng": -73.985258}, "viewport": {"northeast": {"lat": 40.75686433029149, "lng": -73.9839967697085}, "southwest": {"lat": 40.7541663697085, "lng": -73.9866947302915}}}, "icon": "https://maps.gstatic.com/mapfiles/place_api/icons/restaurant-71.png", "id": "03904a8cca3e64248febcd8876b83a27e191e6d0", "name": "Aureole", "opening_hours": {"open_now": false}, "photos": [{"height": 1199, "html_attributions": ["<a href=\"https://maps.google.com/maps/contrib/105303505373661530610/photos\">Hauser Quaid Zzyzx</a>"], "photo_reference": "CmRaAAAAyjJCJ6Tx-Le-rjz_9U75wcVItoRAJYr3G3vumS0p8EfF9_i3NRRGpFEEmMAnU1kwHIVNck7KoUdaqvtwS7NZcIC8UuMzCE9G874Fko8gJwIK2PZNHQ6Akev-Da5H8OtvEhC2LohoCKoeeSCyrPL8wFdWGhRdyaOaRQkWnqMoHIgYtbktZtNcQg", "width": 1472}], "place_id": "ChIJp4zfw-9YwokR5V6tmTVAuBI", "plus_code": {"compound_code": "Q247+7V New York, United States", "global_code": "87G8Q247+7V"}, "price_level": 4, "rating": 4.5, "reference": "ChIJp4zfw-9YwokR5V6tmTVAuBI", "scope": "GOOGLE", "types": ["bar", "restaurant", "point_of_interest", "food", "establishment"], "user_ratings_total": 585, "vicinity": "135 West 42nd Street, New York"}, {"geometry": {"location": {"lat": 40.7569733, "lng": -73.9887825}, "viewport": {"northeast": {"lat": 40.7582575802915, "lng": -73.98748101970848}, "southwest": {"lat": 40.75555961970851, "lng": -73.9901789802915}}}, "icon": "https://maps.gstatic.com/mapfiles/place_api/icons/restaurant-71.png", "id": "14206cf045fad526253b9294529a036370ca030c", "name": "Dallas BBQ", "opening_hours": {"open_now": false}, "photos": [{"height": 800, "html_attributions": ["<a href=\"https://maps.google.com/maps/contrib/105303505373661530610/photos\">Hauser Quaid Zzyzx</a>"], "photo_reference": "CmRaAAAA6gJUBpGaq0uxnFG0IrCRCbXEPDSHiPPfI9mvMh1g0kuCHzoC9ViVVchYafd_K7oaZ3P21PhIXr2X1H7oKKG1SJqNtkHTqH5Jylft2knux2oweTrhsE1pmJK1QGLPrLFmEhBupNbCz_D1Pm66NsU65Mc4GhQ-6TgqR2iCCMGcw5ZdjdnSbJfxVQ", "width": 1200}], "place_id": "ChIJn5a71FRYwokRGB7grb84QaI", "plus_code": {"compound_code": "Q246+QF New York, United States", "global_code": "87G8Q246+QF"}, "price_level": 2, "rating": 4.2, "reference": "ChIJn5a71FRYwokRGB7grb84QaI", "scope": "GOOGLE", "types": ["bar", "restaurant", "point_of_interest", "food", "establishment"], "user_ratings_total": 6288, "vicinity": "241 West 42nd Street, New York"}, {"geometry": {"location": {"lat": 40.75548199999999, "lng": -73.987147}, "viewport": {"northeast": {"lat": 40.7567649802915, "lng": -73.9858800697085}, "southwest": {"lat": 40.7540670197085, "lng": -73.9885780302915}}}, "icon": "https://maps.gstatic.com/mapfiles/place_api/icons/restaurant-71.png", "id": "38be73cdc4b574a88cc919fd9d2133de1ee35551", "name": "Ruby Tuesday", "opening_hours": {"open_now": false}, "photos": [{"height": 2988, "html_attributions": ["<a href=\"https://maps.google.com/maps/contrib/114455185723475416858/photos\">Joy Harrison</a>"], "photo_reference": "CmRaAAAAzpWrTuYbNLaFecg79jNEivv-JicZwNuIM_EucErQRX0jhTgvNat2uzXJ0P-xjpBnCMI-9g7ywXPI_qwSrhgEav-AaqVaa9Q9H0ezOQEfnJdtsqxm1u1QtUrvksycp56mEhC0m6vcODW1dQyAA8I9bDONGhS0lzKiX_dJVtRM3nPQV8Gv9JB2Bw", "width": 5312}], "place_id": "ChIJYatDNKtZwokRAxWufd3msuo", "plus_code": {"compound_code": "Q247+54 New York, United States", "global_code": "87G8Q247+54"}, "price_level": 2, "rating": 3.9, "reference": "ChIJYatDNKtZwokRAxWufd3msuo", "scope": "GOOGLE", "types": ["bar", "restaurant", "point_of_interest", "food", "establishment"], "user_ratings_total": 1873, "vicinity": "585 7th Avenue, New York"}, {"geometry": {"location": {"lat": 40.7649476, "lng": -73.9794337}, "viewport": {"northeast": {"lat": 40.76641873029151, "lng": -73.97797021970848}, "southwest": {"lat": 40.76372076970851, "lng": -73.9806681802915}}}, "icon": "https://maps.gstatic.com/mapfiles/place_api/icons/restaurant-71.png", "id": "83b9140a811288f44ebb1255fe42da16b0c95c1d", "name": "The Russian Tea Room", "opening_hours": {"open_now": false}, "photos": [{"height": 3006, "html_attributions": ["<a href=\"https://maps.google.com/maps/contrib/108250705186274386986/photos\">David DeMille</a>"], "photo_reference": "CmRaAAAAOmiB-CYU5xqCgzH_fANi6_Lwv5Ztd0BuYHZKxwR3sRUQKThbrOYmz4r9GkWNN9VI3UFMvS6ZMpcmWSh5gqJ2KOCUaPo0uTVSyxQE9m2vuJZN43sGSBLOGy5S7kpWZS-pEhC-eMhf-hAPPOqpotdcPTBxGhQTd-JBPKWzAPVcu50C59jLTypMOA", "width": 4355}], "place_id": "ChIJ_816e_dYwokROMvaQpsyemk", "plus_code": {"compound_code": "Q27C+X6 New York, United States", "global_code": "87G8Q27C+X6"}, "price_level": 3, "rating": 4, "reference": "ChIJ_816e_dYwokROMvaQpsyemk", "scope": "GOOGLE", "types": ["bar", "restaurant", "point_of_interest", "food", "establishment"], "user_ratings_total": 647, "vicinity": "150 West 57th Street, New York"}, {"geometry": {"location": {"lat": 40.759445, "lng": -73.99136229999999}, "viewport": {"northeast": {"lat": 40.7608513802915, "lng": -73.9899714697085}, "southwest": {"lat": 40.7581534197085, "lng": -73.9926694302915}}}, "icon": "https://maps.gstatic.com/mapfiles/place_api/icons/generic_business-71.png", "id": "6efa44a5b9fa33288201038a6955d41de8b573ab", "name": "Producers Club Theaters", "photos": [{"height": 2988, "html_attributions": ["<a href=\"https://maps.google.com/maps/contrib/107469112579573368854/photos\">Jose Gonzalez</a>"], "photo_reference": "CmRaAAAANkoOlaoXICXrjotZHeHyWl0q5Rx3XpFUZmLo6QWIlYXESBiKqauabXaj7iy2IaoSuzOcfMt8LxqPF9n-2wCDJ_fkR859KiuD214KCa7ROIdUxXQKaBctw0LfZy2Z2C9OEhD_ju5cRAR5Oej0euEjCSJqGhQxjWAlNn6JpYRpuKTeOjiPTiNH6Q", "width": 5312}], "place_id": "ChIJxT_asVNYwokRIgy4WDg2wb0", "plus_code": {"compound_code": "Q255+QF New York, United States", "global_code": "87G8Q255+QF"}, "rating": 4.2, "reference": "ChIJxT_asVNYwokRIgy4WDg2wb0", "scope": "GOOGLE", "types": ["bar", "point_of_interest", "establishment"], "user_ratings_total": 232, "vicinity": "358 West 44th Street, New York"}, {"geometry": {"location": {"lat": 40.7579719, "lng": -73.98231419999999}, "viewport": {"northeast": {"lat": 40.7594496802915, "lng": -73.9809771697085}, "southwest": {"lat": 40.7567517197085, "lng": -73.9836751302915}}}, "icon": "https://maps.gstatic.com/mapfiles/place_api/icons/restaurant-71.png", "id": "d5ddcc962925124f69e84425904f6ced3b132796", "name": "Utsav", "opening_hours": {"open_now": false}, "photos": [{"height": 853, "html_attributions": ["<a href=\"https://maps.google.com/maps/contrib/117286045611099704872/photos\">Utsav</a>"], "photo_reference": "CmRaAAAAHbBuMesgpBiAsXYUJljK-KX7-x7fHGdgMYKfSs1jn51LMDd26KsV_UUEYZI62NCOcEdHSzqtSaGaqle8ERvqKZFPEThS45XHRWrbbT1J01iAV19K3Lry78eD8wq07l7IEhBD5I9J3AjUJWmSKWd8VTHDGhQKh7HEa6kNxuIrREfzK_JXDcXfQQ", "width": 1280}], "place_id": "ChIJgYWke_9YwokRNUclYG3dn08", "plus_code": {"compound_code": "Q259+53 New York, United States", "global_code": "87G8Q259+53"}, "price_level": 2, "rating": 4, "reference": "ChIJgYWke_9YwokRNUclYG3dn08", "scope": "GOOGLE", "types": ["bar", "restaurant", "point_of_interest", "food", "establishment"], "user_ratings_total": 1085, "vicinity": "1185 6th Avenue, New York"}, {"geometry": {"location": {"lat": 40.761896, "lng": -73.983525}, "viewport": {"northeast": {"lat": 40.7632840802915, "lng": -73.98228246970848}, "southwest": {"lat": 40.7605861197085, "lng": -73.98498043029149}}}, "icon": "https://maps.gstatic.com/mapfiles/place_api/icons/generic_business-71.png", "id": "8bd8dd9f6be9aabbb229f08b804b3a785768c9f5", "name": "The Iridium", "opening_hours": {"open_now": false}, "photos": [{"height": 5312, "html_attributions": ["<a href=\"https://maps.google.com/maps/contrib/105970612870441460498/photos\">Gerard McCaffery</a>"], "photo_reference": "CmRaAAAAQcSQkrBPy6uY6kDAvFUFm5VC6frRt6vZ3i91-MU6lVWzQTRz4yaMUu5lRqsAUInDtaknMhT1IY208E3ND2baUQbre0pnfk5yjsN3HtMKjaGP4VvCqZMqvHJqzQtf2uX6EhDQj_8G-vBHQkrVJLb5Tr4RGhS5ALSBem-VtEQsyNgaSQpnhP7p3A", "width": 2988}], "place_id": "ChIJ_85dJlZYwokRzdVz7YJQOWs", "plus_code": {"compound_code": "Q268+QH New York, United States", "global_code": "87G8Q268+QH"}, "price_level": 3, "rating": 4.5, "reference": "ChIJ_85dJlZYwokRzdVz7YJQOWs", "scope": "GOOGLE", "types": ["night_club", "bar", "restaurant", "point_of_interest", "food", "establishment"], "user_ratings_total": 459, "vicinity": "1650 Broadway, New York"}, {"geometry": {"location": {"lat": 40.7600425, "lng": -73.9782601}, "viewport": {"northeast": {"lat": 40.76130433029149, "lng": -73.9769819697085}, "southwest": {"lat": 40.7586063697085, "lng": -73.97967993029151}}}, "icon": "https://maps.gstatic.com/mapfiles/place_api/icons/restaurant-71.png", "id": "206de5718ef68314fe39f42c2306adedf2ed68f5", "name": "Johnny Utah's", "opening_hours": {"open_now": false}, "photos": [{"height": 3036, "html_attributions": ["<a href=\"https://maps.google.com/maps/contrib/117712548085320867436/photos\">Christian Czekay</a>"], "photo_reference": "CmRaAAAAgKnt6PpHIvxpCjfRMkbpcNik4ur33e7sysDWrVnzR8wL6RIwqOgYAVSuIFXH6zhOtgJ1dJZHiR9M9Cd2CvxWBkyk2RMI34txRzAlyyDjyCTn9-qjxxUcoMC8fiZvjTuNEhCCDUOZNWieQLzC0LcT2mj6GhQDgxnCfr3awYmxy9njtTPBZRFFpg", "width": 4048}], "place_id": "ChIJASpZJPlYwokRhon8fE-Zf04", "plus_code": {"compound_code": "Q26C+2M New York, United States", "global_code": "87G8Q26C+2M"}, "price_level": 2, "rating": 3.8, "reference": "ChIJASpZJPlYwokRhon8fE-Zf04", "scope": "GOOGLE", "types": ["bar", "restaurant", "point_of_interest", "food", "establishment"], "user_ratings_total": 975, "vicinity": "6939, 25 West 51st Street, New York"}, {"geometry": {"location": {"lat": 40.757732, "lng": -73.987218}, "viewport": {"northeast": {"lat": 40.7591238802915, "lng": -73.98583926970848}, "southwest": {"lat": 40.7564259197085, "lng": -73.98853723029148}}}, "icon": "https://maps.gstatic.com/mapfiles/place_api/icons/generic_business-71.png", "id": "dcc438e86aa688f2cbc1aa810328ea3369f0d26b", "name": "Bowlmor Times Square", "opening_hours": {"open_now": false}, "photos": [{"height": 1836, "html_attributions": ["<a href=\"https://maps.google.com/maps/contrib/107951235061043445646/photos\">Michael Sehaik</a>"], "photo_reference": "CmRaAAAAzmt7OYozb6BXYeMoJ8wB8JY98LKojOWjQ2JfM9_Ja95vJgFaVMhx9O5Qkx9zKvC6mysxPBAuHQxFXSFTwIm-CahVk9IJUIcCSthA3EC7zTKf_0n4LbYZE1c8LltbSj7ZEhBIkQp8X4eCBbhIEWxoUTsoGhSR8-4frEbg9gVU5GOUU9eeDLub4A", "width": 3264}], "place_id": "ChIJUf2r9FRYwokRKrasyV7rvwQ", "plus_code": {"compound_code": "Q257+34 New York, United States", "global_code": "87G8Q257+34"}, "price_level": 3, "rating": 4.2, "reference": "ChIJUf2r9FRYwokRKrasyV7rvwQ", "scope": "GOOGLE", "types": ["bowling_alley", "bar", "restaurant", "point_of_interest", "food", "establishment"], "user_ratings_total": 1745, "vicinity": "222 West 44th Street, New York"}, {"geometry": {"location": {"lat": 40.7611327, "lng": -73.9829467}, "viewport": {"northeast": {"lat": 40.7624607302915, "lng": -73.9817184697085}, "southwest": {"lat": 40.7597627697085, "lng": -73.9844164302915}}}, "icon": "https://maps.gstatic.com/mapfiles/place_api/icons/restaurant-71.png", "id": "4fe8cceb20ad2156678b71c23552607d36f3e064", "name": "TGI Fridays", "opening_hours": {"open_now": false}, "photos": [{"height": 1956, "html_attributions": ["<a href=\"https://maps.google.com/maps/contrib/107208560159544413574/photos\">Niels Diemer</a>"], "photo_reference": "CmRaAAAAaONaOcD8yBK8-DJ0gOyYQuKL4WLZi6v6PNZFQ_p0b70Ac9bXecZTQB0XgXNkQv2ZfZeyF7E9EaIhmtuc8nfi56J1q01Qh-LVTafeet4Pzz3mhnXtRTD0J8ZIUBQiqiwwEhASxANCBBiPS3dm9n9DvRnwGhRxZOj0bv71f36RH2rN5kdtSREJ-A", "width": 2608}], "place_id": "ChIJ6dn6HlZYwokRBoc8ubaUPnU", "plus_code": {"compound_code": "Q268+FR New York, United States", "global_code": "87G8Q268+FR"}, "price_level": 2, "rating": 2.6, "reference": "ChIJ6dn6HlZYwokRBoc8ubaUPnU", "scope": "GOOGLE", "types": ["restaurant", "bar", "point_of_interest", "food", "establishment"], "user_ratings_total": 935, "vicinity": "761 7th Avenue, New York"}, {"geometry": {"location": {"lat": 40.7528962, "lng": -73.9837762}, "viewport": {"northeast": {"lat": 40.75429703029149, "lng": -73.98239491970848}, "southwest": {"lat": 40.75159906970849, "lng": -73.98509288029149}}}, "icon": "https://maps.gstatic.com/mapfiles/place_api/icons/restaurant-71.png", "id": "cf4ec1ebc77e74548351ab0823f7902c46d04eea", "name": "Koi", "opening_hours": {"open_now": false}, "photos": [{"height": 632, "html_attributions": ["<a href=\"https://maps.google.com/maps/contrib/111107110424037669856/photos\">Koi Bryant Park</a>"], "photo_reference": "CmRaAAAAITjBg_PBdz9s3rdz7-4saij6fCSMnbcpCAVpsViZPp-ilCVu1LUC6Gl5cdcZA0a3Q6t_Su2d8PtCDEkEkHQSI6rvVFSMJFalMSnkW7xKOZJvFlO6IjuQQa7LVc-txQYGEhBb9YkIEYAvBM5l6G3GB1CkGhSU5Mf1nMzMcXRmyp9-4TLSSQB4Bw", "width": 960}], "place_id": "ChIJz7hChqpZwokRSdJ1jl4b8sA", "plus_code": {"compound_code": "Q238+5F New York, United States", "global_code": "87G8Q238+5F"}, "price_level": 3, "rating": 4.4, "reference": "ChIJz7hChqpZwokRSdJ1jl4b8sA", "scope": "GOOGLE", "types": ["bar", "restaurant", "point_of_interest", "food", "establishment"], "user_ratings_total": 415, "vicinity": "40 West 40th Street, New York"}, {"geometry": {"location": {"lat": 40.756515, "lng": -73.992446}, "viewport": {"northeast": {"lat": 40.7579228302915, "lng": -73.9910483197085}, "southwest": {"lat": 40.7552248697085, "lng": -73.9937462802915}}}, "icon": "https://maps.gstatic.com/mapfiles/place_api/icons/bar-71.png", "id": "d8a9e7d22c530a0afd60c45a2a1a958c5ab20476", "name": "Sky Room", "opening_hours": {"open_now": false}, "photos": [{"height": 1349, "html_attributions": ["<a href=\"https://maps.google.com/maps/contrib/109577628048692781072/photos\">A C</a>"], "photo_reference": "CmRaAAAA7Q6c_ytZrGAXz5ujlH6A_V6fVb2U9lDUpDKuI76Dnkygp7ums-PmlU8d_9oA7vkWNgmS0q1Xzuw8lWL7VCXnGKfu0Ik5zs1dmD0ji-vOgqgSFCkgbwOJrU6fxxlDcCbfEhCp7ulVYMkS1DGsIJ5VQgAVGhQtGlfgq2Kt1REOB333IPCPoGda1Q", "width": 1080}], "place_id": "ChIJYwxW1VJYwokRSbbYKXa0YUw", "plus_code": {"compound_code": "Q245+J2 New York, United States", "global_code": "87G8Q245+J2"}, "price_level": 3, "rating": 3.6, "reference": "ChIJYwxW1VJYwokRSbbYKXa0YUw", "scope": "GOOGLE", "types": ["night_club", "bar", "restaurant", "point_of_interest", "food", "establishment"], "user_ratings_total": 963, "vicinity": "330 West 40th Street, New York"}, {"geometry": {"location": {"lat": 40.76536790000001, "lng": -73.9842213}, "viewport": {"northeast": {"lat": 40.7666522302915, "lng": -73.9827409697085}, "southwest": {"lat": 40.7639542697085, "lng": -73.98543893029151}}}, "icon": "https://maps.gstatic.com/mapfiles/place_api/icons/bar-71.png", "id": "fc8b6c9c5f4b2082dd5ae519572ee9ece73ba348", "name": "Barcelona Bar", "opening_hours": {"open_now": false}, "photos": [{"height": 2448, "html_attributions": ["<a href=\"https://maps.google.com/maps/contrib/107418544706703066528/photos\">Kevin L</a>"], "photo_reference": "CmRaAAAAsEU3UqKnwIwWbrgs8nB2N070-1u03qer1ALOxN7eL40UEXcrQwk11E__VmSMlINPkw_HvyVNPOlIjbb4zh0W1FhsWy3Da8SRP6skd5XUrDhkJ_Sqqfq1qmrFq6KIR1ZOEhCS1ie-fGBd1vahq26YrF5AGhTH7gpCXCvt42twChSQmiUMu6VdQQ", "width": 3264}], "place_id": "ChIJte5SHFhYwokRV50VmHOsjYM", "plus_code": {"compound_code": "Q288+48 New York, United States", "global_code": "87G8Q288+48"}, "price_level": 1, "rating": 4.4, "reference": "ChIJte5SHFhYwokRV50VmHOsjYM", "scope": "GOOGLE", "types": ["bar", "point_of_interest", "establishment"], "user_ratings_total": 429, "vicinity": "923 8th Avenue, New York"}, {"geometry": {"location": {"lat": 40.7574092, "lng": -73.9837409}, "viewport": {"northeast": {"lat": 40.7586892302915, "lng": -73.9824711697085}, "southwest": {"lat": 40.7559912697085, "lng": -73.98516913029151}}}, "icon": "https://maps.gstatic.com/mapfiles/place_api/icons/restaurant-71.png", "id": "fa947f6668fba51915ad932e6f43a998b2706ddb", "name": "The Perfect Pint", "opening_hours": {"open_now": false}, "photos": [{"height": 1367, "html_attributions": ["<a href=\"https://maps.google.com/maps/contrib/105347435894338761634/photos\">The Perfect Pint</a>"], "photo_reference": "CmRaAAAAIWYDCTdoQghBfEI__cX5W_pmNr2fREG71vRe3FUtBK7mUPnR8FHB9kwyDW9Y-6ZHk0vTYWzoEi9wrP-7_UAbiyfPLSFA8uGm-ceDrkjA-caqi23kcKqxvsXxVf02T1gnEhArqWbe8fAWVX5YOWz2FCRsGhR60zJ7m0hGy8ZvXgJB5HAghPdCFw", "width": 2048}], "place_id": "ChIJIS8qblVYwokRFcTD6U66DlU", "plus_code": {"compound_code": "Q248+XG New York, United States", "global_code": "87G8Q248+XG"}, "price_level": 2, "rating": 4.4, "reference": "ChIJIS8qblVYwokRFcTD6U66DlU", "scope": "GOOGLE", "types": ["bar", "restaurant", "point_of_interest", "food", "establishment"], "user_ratings_total": 779, "vicinity": "123 West 45th Street, New York"}, {"geometry": {"location": {"lat": 40.7637209, "lng": -73.9788277}, "viewport": {"northeast": {"lat": 40.7649159802915, "lng": -73.97759066970849}, "southwest": {"lat": 40.7622180197085, "lng": -73.9802886302915}}}, "icon": "https://maps.gstatic.com/mapfiles/place_api/icons/restaurant-71.png", "id": "d6828e084fab435b86fd08047e26478e6dc4f1ff", "name": "Estiatorio Milos", "opening_hours": {"open_now": false}, "photos": [{"height": 472, "html_attributions": ["<a href=\"https://maps.google.com/maps/contrib/105303505373661530610/photos\">Hauser Quaid Zzyzx</a>"], "photo_reference": "CmRaAAAAQUYGAQShucb8ZiODQzjlMFyMYMUek-9zA5pcmeP4ohYUDzu_f9GKDHHgP3dvqijpcfnXcZZYVQlfl8fmoRmRB-TLtyV9q7B2tZGasKhflEcaDy4dPTz0V4GQGdjk-gjlEhDWwtUhFDXoBipfHgRXTqJkGhSfRhLXZB5VS2dwNs9_f1kJuJIiNA", "width": 630}], "place_id": "ChIJbRaexvlYwokRYc5RgUjlsIY", "plus_code": {"compound_code": "Q27C+FF New York, United States", "global_code": "87G8Q27C+FF"}, "price_level": 4, "rating": 4.5, "reference": "ChIJbRaexvlYwokRYc5RgUjlsIY", "scope": "GOOGLE", "types": ["bar", "restaurant", "point_of_interest", "food", "establishment"], "user_ratings_total": 818, "vicinity": "125 West 55th Street, New York"}, {"geometry": {"location": {"lat": 40.76344479999999, "lng": -73.98469990000001}, "viewport": {"northeast": {"lat": 40.7647531302915, "lng": -73.98338336970849}, "southwest": {"lat": 40.7620551697085, "lng": -73.9860813302915}}}, "icon": "https://maps.gstatic.com/mapfiles/place_api/icons/restaurant-71.png", "id": "9d0041b780777e86cb18dc454a8a6aa45d519147", "name": "Russian Vodka Room", "opening_hours": {"open_now": false}, "photos": [{"height": 3072, "html_attributions": ["<a href=\"https://maps.google.com/maps/contrib/114663597303449668785/photos\">Aaron Wall</a>"], "photo_reference": "CmRaAAAAHAsOSau7wYOb28wCkfkv0_AzlpJZ1QO10YblzqEkJBYj29RU-uKLE0wPTg2iiku3LzOJgtPNXDoyqnK_TPMH9_3AXPo3_San6Amhkwm39fHMZXAGGXuvFiu_wTuBavrjEhCti7Z9PyiXEaSTHS0737LJGhRLdA4JLxJ1DIw4ykrvJK_BE1q0QQ", "width": 4096}], "place_id": "ChIJhXPTuVdYwokRivX8-BKbO4Y", "plus_code": {"compound_code": "Q278+94 New York, United States", "global_code": "87G8Q278+94"}, "price_level": 2, "rating": 4.4, "reference": "ChIJhXPTuVdYwokRivX8-BKbO4Y", "scope": "GOOGLE", "types": ["night_club", "bar", "restaurant", "point_of_interest", "food", "establishment"], "user_ratings_total": 512, "vicinity": "265 West 52nd Street, New York"}, {"geometry": {"location": {"lat": 40.761081, "lng": -73.976753}, "viewport": {"northeast": {"lat": 40.76242998029149, "lng": -73.97540401970849}, "southwest": {"lat": 40.75973201970849, "lng": -73.97810198029151}}}, "icon": "https://maps.gstatic.com/mapfiles/place_api/icons/restaurant-71.png", "id": "804d4d52a0fb7770d8acfe511699538ec5f0958d", "name": "The Modern", "opening_hours": {"open_now": false}, "photos": [{"height": 417, "html_attributions": ["<a href=\"https://maps.google.com/maps/contrib/105303505373661530610/photos\">Hauser Quaid Zzyzx</a>"], "photo_reference": "CmRaAAAAuVkFpf_AbQgDQGJrypNSVphXWnweBJXi4TYreT-DfYO1XwANATpju--ilnI5xHPIo0SuKJoj2boQTaegnxWeeYZOw2GRBEBOGJNd30YJoTfB2KBNWHPebptVo2yHrRNDEhCVLkS3Z5bKhfUPKoypejoUGhQTxsw9glda7o0UK77ujk0SEUAadA", "width": 732}], "place_id": "ChIJMW-gxPtYwokRzDlnsRgq9rA", "plus_code": {"compound_code": "Q26F+C7 New York, United States", "global_code": "87G8Q26F+C7"}, "price_level": 4, "rating": 4.6, "reference": "ChIJMW-gxPtYwokRzDlnsRgq9rA", "scope": "GOOGLE", "types": ["bar", "restaurant", "point_of_interest", "food", "establishment"], "user_ratings_total": 949, "vicinity": "9 West 53rd Street, New York"}, {"geometry": {"location": {"lat": 40.7611053, "lng": -73.9825075}, "viewport": {"northeast": {"lat": 40.7623283802915, "lng": -73.9812512197085}, "southwest": {"lat": 40.7596304197085, "lng": -73.9839491802915}}}, "icon": "https://maps.gstatic.com/mapfiles/place_api/icons/restaurant-71.png", "id": "3e94c7b14dc82358aab0cb03dd2ad13845147b6e", "name": "Bobby Van's", "opening_hours": {"open_now": false}, "photos": [{"height": 608, "html_attributions": ["<a href=\"https://maps.google.com/maps/contrib/107264788212593650025/photos\">Bobby Van&#39;s Grill &amp; Steakhouse - 50th Street</a>"], "photo_reference": "CmRaAAAAj7M5TPyHY8Yd9sGLGeoRGNgRYDVPMP8Oo1-j770o77s7VZUyPebJCNUJKfUNalZaqRLkJUdqXTs4Fd0vISnm0k2T0WBWJmHKGbY3k1wm6LvyX71AYY00tp5o0m5v_PyZEhDEo23HZEMjhmMO4MQ-wW5xGhQmadgJIXI2prZwWktTbnOq-qRerA", "width": 1080}], "place_id": "ChIJR33-vPhYwokRp6MzGzRnS0o", "plus_code": {"compound_code": "Q268+CX New York, United States", "global_code": "87G8Q268+CX"}, "price_level": 3, "rating": 4.2, "reference": "ChIJR33-vPhYwokRp6MzGzRnS0o", "scope": "GOOGLE", "types": ["bar", "restaurant", "point_of_interest", "food", "establishment"], "user_ratings_total": 318, "vicinity": "135 West 50th Street, New York"}, {"geometry": {"location": {"lat": 40.7632617, "lng": -73.98135649999999}, "viewport": {"northeast": {"lat": 40.7646617802915, "lng": -73.98013051970848}, "southwest": {"lat": 40.76196381970851, "lng": -73.98282848029149}}}, "icon": "https://maps.gstatic.com/mapfiles/place_api/icons/bar-71.png", "id": "f365085571333a8849407e1553755cb142238598", "name": "The Irish Pub", "opening_hours": {"open_now": false}, "photos": [{"height": 417, "html_attributions": ["<a href=\"https://maps.google.com/maps/contrib/113724452689306579338/photos\">The Irish Pub</a>"], "photo_reference": "CmRaAAAAM6HOBwcHWX5F8Vmzir50Uvk_40e6E1FGglAkWvmR9N5XV3xi20ksAL6ftzM_N-Wwqc3730JJn7418sgQudPqoRP8LC5RYN4EDN2-mStzeY2GYZF0npj7Jp7rBBpngRTIEhCX5chNUxZOsgwjmo2uLiEPGhQ0dR0CeCpUI1eNODvvHwsJQzX6qA", "width": 800}], "place_id": "ChIJk7uaavhYwokRv26cLbV9Cc4", "plus_code": {"compound_code": "Q279+8F New York, United States", "global_code": "87G8Q279+8F"}, "price_level": 2, "rating": 4.2, "reference": "ChIJk7uaavhYwokRv26cLbV9Cc4", "scope": "GOOGLE", "types": ["bar", "restaurant", "point_of_interest", "food", "establishment"], "user_ratings_total": 984, "vicinity": "837 7th Avenue, New York"}, {"geometry": {"location": {"lat": 40.76208989999999, "lng": -73.9764139}, "viewport": {"northeast": {"lat": 40.7635198802915, "lng": -73.9750051197085}, "southwest": {"lat": 40.7608219197085, "lng": -73.9777030802915}}}, "icon": "https://maps.gstatic.com/mapfiles/place_api/icons/restaurant-71.png", "id": "cb233466b475f027513e9e77161e07af483fe67d", "name": "Michael's", "opening_hours": {"open_now": false}, "photos": [{"height": 2891, "html_attributions": ["<a href=\"https://maps.google.com/maps/contrib/105303505373661530610/photos\">Hauser Quaid Zzyzx</a>"], "photo_reference": "CmRaAAAAeWcmi_WA-RBY3Q7J39uCpZEcoK8Wi92hr03U0wZh_O8jyfwm16Ecgpt6HPeXIJrs8-q6boDYpXR5dzciN7joJ-YGWzGs4C797B05oId5A4ZMtve8STz57qBuVlFNW5omEhDoHDy1TF7kHzwYxcXoZs2XGhQVHNRL6ZSpqqi5zd2ibL88ZCCrDA", "width": 3855}], "place_id": "ChIJR-58MPpYwokR6uvm2VX0MK4", "plus_code": {"compound_code": "Q26F+RC New York, United States", "global_code": "87G8Q26F+RC"}, "price_level": 3, "rating": 4.4, "reference": "ChIJR-58MPpYwokR6uvm2VX0MK4", "scope": "GOOGLE", "types": ["bar", "restaurant", "point_of_interest", "food", "establishment"], "user_ratings_total": 162, "vicinity": "24 West 55th Street, New York"}, {"geometry": {"location": {"lat": 40.76424909999999, "lng": -73.98322689999999}, "viewport": {"northeast": {"lat": 40.76562698029149, "lng": -73.98182751970849}, "southwest": {"lat": 40.7629290197085, "lng": -73.9845254802915}}}, "icon": "https://maps.gstatic.com/mapfiles/place_api/icons/restaurant-71.png", "id": "0e80300efa1badb2d1633c78f766f0a911005665", "name": "Iguana New York", "opening_hours": {"open_now": false}, "photos": [{"height": 432, "html_attributions": ["<a href=\"https://maps.google.com/maps/contrib/117609529388744506321/photos\">Iguana New York</a>"], "photo_reference": "CmRaAAAAr9P2iaPNv4h-E3IQeYphUn-tQpc5mfEybJEz2cVwVnj-tgVtYJh3qc3XELyGyrdWPP9rDatXZ83qSPicMRqh1v7A9UttKrHGwZstoUnteoaKX9FM9teHOyTEku8ZgzNqEhD4mtl3QS6PVYdgJ1fDuWI9GhRr5NoQNXwZfwi46P5RRMYl6RKh6w", "width": 648}], "place_id": "ChIJe3pj4ldYwokRWU6AqPCs5uY", "plus_code": {"compound_code": "Q278+MP New York, United States", "global_code": "87G8Q278+MP"}, "price_level": 2, "rating": 3.9, "reference": "ChIJe3pj4ldYwokRWU6AqPCs5uY", "scope": "GOOGLE", "types": ["night_club", "bar", "restaurant", "point_of_interest", "food", "establishment"], "user_ratings_total": 1444, "vicinity": "240 West 54th Street, New York"}, {"geometry": {"location": {"lat": 40.7600407, "lng": -73.9837737}, "viewport": {"northeast": {"lat": 40.76143328029151, "lng": -73.98252451970849}, "southwest": {"lat": 40.75873531970851, "lng": -73.98522248029151}}}, "icon": "https://maps.gstatic.com/mapfiles/place_api/icons/bar-71.png", "id": "d7ac46d2ca6d6c6186ebc6221932a574d00fdc9b", "name": "Tonic Times Square", "opening_hours": {"open_now": false}, "photos": [{"height": 996, "html_attributions": ["<a href=\"https://maps.google.com/maps/contrib/105760401414659550192/photos\">Ravindra Salunkhe</a>"], "photo_reference": "CmRaAAAAgJG1-fmZWyBrzrLDVIN1D6jtLeGlQZNHBsrQlvsVAZhjo5SzELTvSIbmMvwk5evi5GiMMgtV9Dkj88pvS1uHgIatYxhZS5xIuR013goYTdm1zcYoeciiWRnYuRAoh7vAEhBpeXyxxOJyIP5r5QUTi6NlGhRem_Erb79gBBaFO5qGzRC1amIsPw", "width": 1600}], "place_id": "ChIJS9du4lVYwokR8OJF9B1LLQI", "plus_code": {"compound_code": "Q268+2F New York, United States", "global_code": "87G8Q268+2F"}, "price_level": 2, "rating": 4.3, "reference": "ChIJS9du4lVYwokR8OJF9B1LLQI", "scope": "GOOGLE", "types": ["bar", "restaurant", "point_of_interest", "food", "establishment"], "user_ratings_total": 1569, "vicinity": "727 7th Avenue, New York"}, {"geometry": {"location": {"lat": 40.7642437, "lng": -73.9797431}, "viewport": {"northeast": {"lat": 40.7656953802915, "lng": -73.97831841970849}, "southwest": {"lat": 40.7629974197085, "lng": -73.98101638029149}}}, "icon": "https://maps.gstatic.com/mapfiles/place_api/icons/bar-71.png", "id": "a205edce48024b0364df640be77b195862db78d5", "name": "The Carnegie Club", "opening_hours": {"open_now": false}, "photos": [{"height": 1363, "html_attributions": ["<a href=\"https://maps.google.com/maps/contrib/103477139048441440560/photos\">The Carnegie Club</a>"], "photo_reference": "CmRaAAAAK2Smy0u6fZOQcLpH5JRBtbSsuMfr6F6xqUxRqhAao-LgQp5_V67N_AwXJQ3HXlj81lWQPQQEPeOWha1ZX_m6dNdLmLYHa8E5Qib4S2OGNS79Q_skPz192mUlp8V7m7OxEhCRhmjCeeAxq2drgdwwHyliGhRB_rMhhi0lkrjNw_m3hgo7dxE54g", "width": 2048}], "place_id": "ChIJf1Qu2PlYwokRqH_b4rWvgT0", "plus_code": {"compound_code": "Q27C+M4 New York, United States", "global_code": "87G8Q27C+M4"}, "price_level": 3, "rating": 4.6, "reference": "ChIJf1Qu2PlYwokRqH_b4rWvgT0", "scope": "GOOGLE", "types": ["bar", "point_of_interest", "establishment"], "user_ratings_total": 338, "vicinity": "156 West 56th Street, New York"}, {"geometry": {"location": {"lat": 40.7571936, "lng": -73.9932135}, "viewport": {"northeast": {"lat": 40.7585963802915, "lng": -73.99199691970848}, "southwest": {"lat": 40.7558984197085, "lng": -73.99469488029149}}}, "icon": "https://maps.gstatic.com/mapfiles/place_api/icons/generic_business-71.png", "id": "38904acd81a112e4e81f46d96a2f8c4901c012a7", "name": "Frames Bowling Lounge", "opening_hours": {"open_now": false}, "photos": [{"height": 612, "html_attributions": ["<a href=\"https://maps.google.com/maps/contrib/118362350599711715222/photos\">Frames Bowling Lounge</a>"], "photo_reference": "CmRaAAAAef-SR6fQk2mDWYQgXzQoLn-oEYPdxKHnwQxx2C3_RYn0RhEO_ijjq5Zzuou0_uB3duzZ4ucW1qJbiat5g5h42tHK-qJp9N7Ku5t2T0jTN5xtHfhNlLe5watw2uxgpgCJEhAYA5BSMKwjWsakMVUJG1LLGhSYiFHjfwwp4uY9mis82zU-xs4tCg", "width": 612}], "place_id": "ChIJYa50uFJYwokRC7PY8Ir6uYY", "plus_code": {"compound_code": "Q244+VP New York, United States", "global_code": "87G8Q244+VP"}, "price_level": 2, "rating": 4.2, "reference": "ChIJYa50uFJYwokRC7PY8Ir6uYY", "scope": "GOOGLE", "types": ["bowling_alley", "night_club", "bar", "point_of_interest", "establishment"], "user_ratings_total": 1275, "vicinity": "550 9th Avenue, New York"}, {"geometry": {"location": {"lat": 40.762545, "lng": -73.98248199999999}, "viewport": {"northeast": {"lat": 40.7638498802915, "lng": -73.98110196970849}, "southwest": {"lat": 40.7611519197085, "lng": -73.9837999302915}}}, "icon": "https://maps.gstatic.com/mapfiles/place_api/icons/restaurant-71.png", "id": "ce2db0fce7d3d66aaca3d2d67387883466e2cd01", "name": "Rosie O'Grady's", "opening_hours": {"open_now": false}, "photos": [{"height": 1080, "html_attributions": ["<a href=\"https://maps.google.com/maps/contrib/109563375407724744536/photos\">\u0414\u043c\u0438\u0442\u0440\u0438\u0439 \u0421\u043c\u0438\u0440\u043d\u043e\u0432</a>"], "photo_reference": "CmRaAAAAswNIGCq5juTXOK2zM0UeRctOdOA3sGet613N19sd6pyeJBYX63xwp82wnLSmv0J8yYDHxdqjbfLqy0qLimn-kytaCDxMRMLtW6bJb5B60rk6UxgOWS4oUdSNuuwiAqn8EhBMChy4HLePC1tgxRkftTEIGhQTUTduOfwl4sh4DfYz-4GEg3Ad_A", "width": 1920}], "place_id": "ChIJcw9wmlVYwokRxG_MnF7vU_g", "plus_code": {"compound_code": "Q279+22 New York, United States", "global_code": "87G8Q279+22"}, "price_level": 2, "rating": 4.1, "reference": "ChIJcw9wmlVYwokRxG_MnF7vU_g", "scope": "GOOGLE", "types": ["bar", "restaurant", "point_of_interest", "food", "establishment"], "user_ratings_total": 1454, "vicinity": "800 7th Avenue, New York"}, {"geometry": {"location": {"lat": 40.7591328, "lng": -73.9898984}, "viewport": {"northeast": {"lat": 40.76043303029149, "lng": -73.9886120197085}, "southwest": {"lat": 40.7577350697085, "lng": -73.9913099802915}}}, "icon": "https://maps.gstatic.com/mapfiles/place_api/icons/restaurant-71.png", "id": "486e21cf504dc8e6ae5a3d92c928398c893a7362", "name": "Gyu-Kaku Japanese BBQ", "opening_hours": {"open_now": false}, "photos": [{"height": 800, "html_attributions": ["<a href=\"https://maps.google.com/maps/contrib/116223748134199276196/photos\">Gyu-Kaku Japanese BBQ</a>"], "photo_reference": "CmRaAAAAh16lSIg6Zj2P-kTrzWgny_bIPlncGqJmv_hiLoR66l-16LgTFSy6oHoZTXKUEMzCTUCs1Xows5jeWSrOCEU3XiR6BU8A9lh-ZeBT-OrlObHDA0wCSLMH1azpcNkzvjsXEhAh2EeMXsvO8xRFoT1STaD1GhSezx6T5faCqTbzzJOFFMqS_0BNjw", "width": 1200}], "place_id": "ChIJN2FymlNYwokRXXs_qNxlw5U", "plus_code": {"compound_code": "Q256+M2 New York, United States", "global_code": "87G8Q256+M2"}, "price_level": 2, "rating": 4.5, "reference": "ChIJN2FymlNYwokRXXs_qNxlw5U", "scope": "GOOGLE", "types": ["bar", "restaurant", "point_of_interest", "food", "establishment"], "user_ratings_total": 1301, "vicinity": "321 West 44th Street #103, New York"}, {"geometry": {"location": {"lat": 40.7596193, "lng": -73.9846788}, "viewport": {"northeast": {"lat": 40.7609295802915, "lng": -73.9831856697085}, "southwest": {"lat": 40.7582316197085, "lng": -73.98588363029151}}}, "icon": "https://maps.gstatic.com/mapfiles/place_api/icons/restaurant-71.png", "id": "218d863715a00b4060d60994ef76afc6e3dc9890", "name": "R Lounge", "opening_hours": {"open_now": false}, "photos": [{"height": 5792, "html_attributions": ["<a href=\"https://maps.google.com/maps/contrib/114343013193502127128/photos\">R Lounge at Two Times Square</a>"], "photo_reference": "CmRaAAAAomyl81zArjwt4PvQkjqzhjmzunv3VINDqnLORpaHaaTSwm7vPG938zgxHUvw5Sa3C0eEzwAEF3HnMC60waNw3BG9zMcJTpkRpuaGbCllF-8XvEZI9yDEv2Sp3wO95efuEhC8vgsZi5L_0u7EujOy8on4GhSUsOaAHIMTHIjGu8-j8GsFTBSYMw", "width": 8688}], "place_id": "ChIJ4-jKwlVYwokRH1o_caL0Btw", "plus_code": {"compound_code": "Q258+R4 New York, United States", "global_code": "87G8Q258+R4"}, "price_level": 2, "rating": 4.2, "reference": "ChIJ4-jKwlVYwokRH1o_caL0Btw", "scope": "GOOGLE", "types": ["night_club", "bar", "restaurant", "point_of_interest", "food", "establishment"], "user_ratings_total": 198, "vicinity": "714 7th Avenue, New York"}, {"geometry": {"location": {"lat": 40.761758, "lng": -73.98982099999999}, "viewport": {"northeast": {"lat": 40.76316853029149, "lng": -73.9886290697085}, "southwest": {"lat": 40.7604705697085, "lng": -73.99132703029152}}}, "icon": "https://maps.gstatic.com/mapfiles/place_api/icons/restaurant-71.png", "id": "7aa0ff2af18dde049f3a3a18b2c17511d2976fef", "name": "Room Service", "opening_hours": {"open_now": false}, "photos": [{"height": 2268, "html_attributions": ["<a href=\"https://maps.google.com/maps/contrib/113897792294996109284/photos\">Kristan Allaire</a>"], "photo_reference": "CmRaAAAAd0a15yFJj2hy7kKdDCs5GSQXHTQgvXJHp5o7TmaZbpWdcAc-fjDGTwGsxW59sGV23KNCxkqfi4-aQe1yNA6WSbOYfjZtt4CbguVMHFPiViud_R5RlnK0cLstHm4nBa7KEhAprUjZJh6EsO7GCUWtXhQBGhTkE6WSz97EEx7ueViBi8-iGb3gsA", "width": 4032}], "place_id": "ChIJmbdBRFFYwokRaeiSnvyGOa8", "plus_code": {"compound_code": "Q266+P3 New York, United States", "global_code": "87G8Q266+P3"}, "price_level": 2, "rating": 4.2, "reference": "ChIJmbdBRFFYwokRaeiSnvyGOa8", "scope": "GOOGLE", "types": ["bar", "restaurant", "point_of_interest", "food", "establishment"], "user_ratings_total": 691, "vicinity": "690 9th Avenue, New York"}, {"geometry": {"location": {"lat": 40.7559406, "lng": -73.98211169999999}, "viewport": {"northeast": {"lat": 40.7571956302915, "lng": -73.9808337697085}, "southwest": {"lat": 40.7544976697085, "lng": -73.9835317302915}}}, "icon": "https://maps.gstatic.com/mapfiles/place_api/icons/restaurant-71.png", "id": "1d5d62ceed22512accbdd0a5ef956167c677eb3f", "name": "db Bistro Moderne", "opening_hours": {"open_now": false}, "photos": [{"height": 2000, "html_attributions": ["<a href=\"https://maps.google.com/maps/contrib/105303505373661530610/photos\">Hauser Quaid Zzyzx</a>"], "photo_reference": "CmRaAAAAfonJRF7nWaFxBq6S1LWxUzcVYJssAwwQ-dh7jln1UA9XMZ5n0v-2YAUhmvrqhr7J59ev3yU9ChPxltW6hMk3VNU1OukM7gHxHX_Tu4KiGoWb_3wzHR-QreVaYyAFXYOPEhD_AyCHLuGWTRUKyPZvGg2eGhQytkHoiwSuXirBfrE5MScDrIxA6A", "width": 3005}], "place_id": "ChIJTzk87v9YwokRbmG0Ufuc5c4", "plus_code": {"compound_code": "Q249+95 New York, United States", "global_code": "87G8Q249+95"}, "price_level": 3, "rating": 4.3, "reference": "ChIJTzk87v9YwokRbmG0Ufuc5c4", "scope": "GOOGLE", "types": ["bar", "restaurant", "point_of_interest", "food", "establishment"], "user_ratings_total": 456, "vicinity": "55 West 44th Street, New York"}, {"geometry": {"location": {"lat": 40.7556763, "lng": -73.98187229999999}, "viewport": {"northeast": {"lat": 40.75704538029149, "lng": -73.9806242697085}, "southwest": {"lat": 40.7543474197085, "lng": -73.9833222302915}}}, "icon": "https://maps.gstatic.com/mapfiles/place_api/icons/lodging-71.png", "id": "04aa52f640857c6e41231864bf86f4c4f32a60bd", "name": "Sofitel New York", "opening_hours": {"open_now": true}, "photos": [{"height": 2413, "html_attributions": ["<a href=\"https://maps.google.com/maps/contrib/103459388932264757090/photos\">Sofitel New York</a>"], "photo_reference": "CmRaAAAAAjB40pW6OcLFXxllvzRTKIOKnIWi99JAyYV9o3BMhJRbnrapgHFtbT_9hjCJJ-41iDPHjf9zO53-1vgM0mUMiwv-FEVpL26C-TjJMmJnC1We59wVBagDjN7FcqHoh81mEhCHe5YlOcln--3DNSQdp0g6GhQocMTB2Bb_oo7Lqq_sQVui2NO89A", "width": 3620}], "place_id": "ChIJ5Zpl7_9YwokRFePhP7971nc", "plus_code": {"compound_code": "Q249+77 New York, United States", "global_code": "87G8Q249+77"}, "price_level": 3, "rating": 4.4, "reference": "ChIJ5Zpl7_9YwokRFePhP7971nc", "scope": "GOOGLE", "types": ["bar", "lodging", "restaurant", "point_of_interest", "food", "establishment"], "user_ratings_total": 1222, "vicinity": "45 West 44th Street, New York"}, {"geometry": {"location": {"lat": 40.7572822, "lng": -73.983625}, "viewport": {"northeast": {"lat": 40.7585840802915, "lng": -73.98231096970851}, "southwest": {"lat": 40.7558861197085, "lng": -73.98500893029151}}}, "icon": "https://maps.gstatic.com/mapfiles/place_api/icons/restaurant-71.png", "id": "47ae69c7303b494a6808796fa41c337c1e04b33f", "name": "Connolly's Pub & Restaurant", "opening_hours": {"open_now": false}, "photos": [{"height": 1192, "html_attributions": ["<a href=\"https://maps.google.com/maps/contrib/117191294768349069646/photos\">Connolly&#39;s</a>"], "photo_reference": "CmRaAAAAV3DQYCN-1a7ysfZeZ5E8aoneDqHspo7C2ym-mGAgnnAVZRSod33I57pGVcNVx2tyQOFmMpO2q9xYkswZr3frCF55W8-Fh1fCfAS4KlA3v_CTh4i3VRXYKwpbHWviIVLjEhAlHOo-n-YM7k-UFnQCKaeqGhR4UN2j39TQQtzrC_5Wkjn-VW8K7A", "width": 2118}], "place_id": "ChIJAS6GeVVYwokRPfg8xt4nH-I", "plus_code": {"compound_code": "Q248+WG New York, United States", "global_code": "87G8Q248+WG"}, "price_level": 2, "rating": 4.3, "reference": "ChIJAS6GeVVYwokRPfg8xt4nH-I", "scope": "GOOGLE", "types": ["bar", "restaurant", "point_of_interest", "food", "establishment"], "user_ratings_total": 1618, "vicinity": "121 West 45th Street, New York"}, {"geometry": {"location": {"lat": 40.7594274, "lng": -73.9822296}, "viewport": {"northeast": {"lat": 40.7606168302915, "lng": -73.9809987197085}, "southwest": {"lat": 40.7579188697085, "lng": -73.9836966802915}}}, "icon": "https://maps.gstatic.com/mapfiles/place_api/icons/bar-71.png", "id": "c75efd4a556f4bd241d29086c1cb3f1da63bb896", "name": "48 Lounge", "opening_hours": {"open_now": false}, "photos": [{"height": 3024, "html_attributions": ["<a href=\"https://maps.google.com/maps/contrib/106658018927285258088/photos\">Anna Anna</a>"], "photo_reference": "CmRaAAAAwMrrD_aPBCQ7fGhO2YwWnZ0kYWWkRjlQCk3bUGRQ13mzvyzNQWN6kLn0tUGaKopg9jbR4hQy5po0RgR5llbQPp6gBCTvJirLbm_iTmVu28e8dYdiAssAuWN24eQ7dJNVEhBphkjyJrw2VkcwgPPaU8UFGhT3rt3JKoeHjrzpHqB6SK18_-d-kg", "width": 4032}], "place_id": "ChIJawhCRP9YwokRCsiWC3VwbjA", "plus_code": {"compound_code": "Q259+Q4 New York, United States", "global_code": "87G8Q259+Q4"}, "price_level": 3, "rating": 4.3, "reference": "ChIJawhCRP9YwokRCsiWC3VwbjA", "scope": "GOOGLE", "types": ["night_club", "bar", "restaurant", "point_of_interest", "food", "establishment"], "user_ratings_total": 228, "vicinity": "1221 AVENUE OF THE AMERICAS, West 48th Street, New York"}, {"geometry": {"location": {"lat": 40.75787649999999, "lng": -73.98402449999999}, "viewport": {"northeast": {"lat": 40.7593490302915, "lng": -73.9826479697085}, "southwest": {"lat": 40.7566510697085, "lng": -73.9853459302915}}}, "icon": "https://maps.gstatic.com/mapfiles/place_api/icons/restaurant-71.png", "id": "769fbcb68d8c5e49c9982a64a2080dfe967a39d1", "name": "Minar", "opening_hours": {"open_now": false}, "photos": [{"height": 3000, "html_attributions": ["<a href=\"https://maps.google.com/maps/contrib/109570231286430724648/photos\">Nrupesh NYC</a>"], "photo_reference": "CmRaAAAAsS_xfin1gMVUjK8yzU5-XbiQvoKyCC76YvqgnlXnbmVb7HI9XK4TsPdv3asgdhXHe6Gp8hgeTUX4cU5L2MFV_SRLc_5ESy6zhunxmVPTm1cgVA4ci1U4PxoCQ1ozBN53EhAqACFCkKe34GGa6BiCR9_eGhTgI_wYXOltcWXW6P6RjHBcWxY__Q", "width": 5333}], "place_id": "ChIJj8enm1VYwokRzD2msJyFpaA", "plus_code": {"compound_code": "Q258+59 New York, United States", "global_code": "87G8Q258+59"}, "price_level": 1, "rating": 3.6, "reference": "ChIJj8enm1VYwokRzD2msJyFpaA", "scope": "GOOGLE", "types": ["restaurant", "point_of_interest", "food", "establishment"], "user_ratings_total": 325, "vicinity": "8506, 138 West 46th Street, New York"}, {"geometry": {"location": {"lat": 40.7656491, "lng": -73.98076449999999}, "viewport": {"northeast": {"lat": 40.76711058029149, "lng": -73.97945966970849}, "southwest": {"lat": 40.76441261970849, "lng": -73.9821576302915}}}, "icon": "https://maps.gstatic.com/mapfiles/place_api/icons/restaurant-71.png", "id": "2be5cde092e68b97f65408807f8358db9a204e59", "name": "Brooklyn Diner USA", "opening_hours": {"open_now": false}, "photos": [{"height": 1080, "html_attributions": ["<a href=\"https://maps.google.com/maps/contrib/117220531131415172593/photos\">Hal Jennings</a>"], "photo_reference": "CmRaAAAADpIEbib0JutB6X70OtlQ9EebXvECiBXUaaY7Asl8NP9JQeS5YwGOeu_pVygrV-ArPRHLJYJ54XP1FpkKVocb_-JbRKH9n5yqVMc_mjyIKUHw0RhWsm6Y073QqyCLfO2EEhD5a03Ke2UazyiCi6jYH4LyGhSPIOb2bqtlYyTTDl_nf7ZeULKayw", "width": 1920}], "place_id": "ChIJj19umPdYwokRM3HY382Gz1o", "plus_code": {"compound_code": "Q289+7M New York, United States", "global_code": "87G8Q289+7M"}, "price_level": 3, "rating": 4.1, "reference": "ChIJj19umPdYwokRM3HY382Gz1o", "scope": "GOOGLE", "types": ["restaurant", "point_of_interest", "food", "establishment"], "user_ratings_total": 1942, "vicinity": "212 West 57th Street, New York"}, {"geometry": {"location": {"lat": 40.75558100000001, "lng": -73.982226}, "viewport": {"northeast": {"lat": 40.7569911302915, "lng": -73.9808322197085}, "southwest": {"lat": 40.75429316970851, "lng": -73.98353018029151}}}, "icon": "https://maps.gstatic.com/mapfiles/place_api/icons/restaurant-71.png", "id": "068774d0ac17b67e0ccac7af48f04ad0a48157e2", "name": "Forty Four", "opening_hours": {"open_now": false}, "photos": [{"height": 3024, "html_attributions": ["<a href=\"https://maps.google.com/maps/contrib/117524934226640350935/photos\">Emily Mathieson</a>"], "photo_reference": "CmRaAAAAqZ8Qzb7OLfX2O6t8n1dze5LsSsGpgUvubyFPlmNQrQtKqs6ELqSaAobBMyPcx0TCXQg1RxG8apK4mnoiRndWgtVGfx9k9jUzRhuatvnUktW1y80-fHhn68Q1hupiIKCcEhBH3QHlL70UVxzIp2wvQ8M_GhRpwu3IcXoDkq7MJZcsn9-zzCy0lw", "width": 4032}], "place_id": "ChIJpSMN7_9YwokR08ijxqMwgzA", "plus_code": {"compound_code": "Q249+64 New York, United States", "global_code": "87G8Q249+64"}, "price_level": 3, "rating": 3.9, "reference": "ChIJpSMN7_9YwokR08ijxqMwgzA", "scope": "GOOGLE", "types": ["bar", "restaurant", "point_of_interest", "food", "establishment"], "user_ratings_total": 56, "vicinity": "44 West 44th Street, New York"}, {"geometry": {"location": {"lat": 40.757498, "lng": -73.986654}, "viewport": {"northeast": {"lat": 40.75890613029149, "lng": -73.9853288197085}, "southwest": {"lat": 40.75620816970849, "lng": -73.9880267802915}}}, "icon": "https://maps.gstatic.com/mapfiles/place_api/icons/restaurant-71.png", "id": "f7274d220dda75b3b823f15ec864f75bbe7d9df4", "name": "Carmine's Italian Restaurant - Times Square", "opening_hours": {"open_now": false}, "photos": [{"height": 1080, "html_attributions": ["<a href=\"https://maps.google.com/maps/contrib/107712532148225729261/photos\">Carmine&#39;s Italian Restaurant - Times Square</a>"], "photo_reference": "CmRaAAAAyRPSSLqlMSLiqSDsZYtC7CHgaOCQhwBuPAXpdkQG-tiWpR5u8MDUEcxW5TwP3ivFdk_eOVGp509d_aMAHa2fgTVs-30GeaAKKwHpRHxHj5b6UBkcg1HEkX-0NjsyPhphEhCyXuOMjjtPxl9kj6lHyn7bGhSfgDbpurIb-KXqbaLHwGAiPElubw", "width": 1920}], "place_id": "ChIJR9So-lRYwokRX1xEjA0rChA", "plus_code": {"compound_code": "Q247+X8 New York, United States", "global_code": "87G8Q247+X8"}, "price_level": 2, "rating": 4.5, "reference": "ChIJR9So-lRYwokRX1xEjA0rChA", "scope": "GOOGLE", "types": ["restaurant", "point_of_interest", "food", "establishment"], "user_ratings_total": 7781, "vicinity": "200 West 44th Street, New York"}, {"geometry": {"location": {"lat": 40.76107179999999, "lng": -73.98030349999999}, "viewport": {"northeast": {"lat": 40.7623022802915, "lng": -73.97866996970849}, "southwest": {"lat": 40.7596043197085, "lng": -73.9813679302915}}}, "icon": "https://maps.gstatic.com/mapfiles/place_api/icons/restaurant-71.png", "id": "2581db51b5d164aa1ff99a381de80cabf9312271", "name": "Bistro New York", "opening_hours": {"open_now": false}, "photos": [{"height": 2448, "html_attributions": ["<a href=\"https://maps.google.com/maps/contrib/108427399698816213863/photos\">Satish Shikhare</a>"], "photo_reference": "CmRaAAAA121hF0Dpd33QhY7XIiJ7MvhACsmBOHS3d6yqn9nsgtzHXj_mde3ilrzlq_QFqaCSeMlvS0GqkDC6VkLPyAbnCn_yg59JNjcJO66_1GonZYxXSf9hjR920FMPQMnYT0HrEhD3campeXSY2yPobjUJQ_I5GhRc-FWmIAw1f5PuWwut0_qcs-bW0w", "width": 3264}], "place_id": "ChIJkbeKH_lYwokRI-A2Yuf_XSg", "plus_code": {"compound_code": "Q269+CV New York, United States", "global_code": "87G8Q269+CV"}, "price_level": 1, "rating": 1, "reference": "ChIJkbeKH_lYwokRI-A2Yuf_XSg", "scope": "GOOGLE", "types": ["restaurant", "point_of_interest", "food", "establishment"], "user_ratings_total": 1, "vicinity": "1285 6th Avenue, New York"}, {"geometry": {"location": {"lat": 40.76349, "lng": -73.98659599999999}, "viewport": {"northeast": {"lat": 40.7647810302915, "lng": -73.9853102197085}, "southwest": {"lat": 40.7620830697085, "lng": -73.9880081802915}}}, "icon": "https://maps.gstatic.com/mapfiles/place_api/icons/restaurant-71.png", "id": "daefdf18dd27378118d7f0e7573e43c6e04f0cb1", "name": "Ippudo Westside", "opening_hours": {"open_now": false}, "photos": [{"height": 513, "html_attributions": ["<a href=\"https://maps.google.com/maps/contrib/105303505373661530610/photos\">Hauser Quaid Zzyzx</a>"], "photo_reference": "CmRaAAAAlBvk36ZwP5MLFr3TmQfPaVghXns6gu0kfRqOgOYvGiLFXWnJjdLoTbgc-Yuegc5jtoGjOcLEUsgFx1iENyzwXnkCNRjpc7aces8WWcpUCZJeYzvTCzrF81mga1VNdpYgEhBqOkDuHZEPwho5_US5ecp7GhT2iQfna4azM_o_Ibw9IZpJiTNgjw", "width": 772}], "place_id": "ChIJB9vaBFdYwokRketCYydnSBM", "plus_code": {"compound_code": "Q277+99 New York, United States", "global_code": "87G8Q277+99"}, "price_level": 2, "rating": 4.5, "reference": "ChIJB9vaBFdYwokRketCYydnSBM", "scope": "GOOGLE", "types": ["restaurant", "point_of_interest", "food", "establishment"], "user_ratings_total": 2609, "vicinity": "321 West 51st Street, New York"}, {"geometry": {"location": {"lat": 40.760533, "lng": -73.97739700000001}, "viewport": {"northeast": {"lat": 40.7617865302915, "lng": -73.97614666970848}, "southwest": {"lat": 40.7590885697085, "lng": -73.9788446302915}}}, "icon": "https://maps.gstatic.com/mapfiles/place_api/icons/restaurant-71.png", "id": "5d08e57330ecc48a64e63ddd5bc0ba93ffad577a", "name": "21 Club", "opening_hours": {"open_now": false}, "photos": [{"height": 1997, "html_attributions": ["<a href=\"https://maps.google.com/maps/contrib/100691634387600446654/photos\">21 Club</a>"], "photo_reference": "CmRaAAAAg5gzwQIFvtl093LInOQT40kslVCawC_bbN4OH9ovgbXUDFcLHPZ24mcME6NbgiRk-0yxu1-tsVRX63N216R4EGgdUWeD9UBvOT0PqzQPzqIzbVAbIQJsY7G2q81p-xujEhBTwyZTt3xC41IU7fy9pD-DGhQvcEtB850bDf13WBenM_iZUan35Q", "width": 3000}], "place_id": "ChIJpZepXflYwokRNuSe6xAwprw", "plus_code": {"compound_code": "Q26F+62 New York, United States", "global_code": "87G8Q26F+62"}, "price_level": 4, "rating": 4.4, "reference": "ChIJpZepXflYwokRNuSe6xAwprw", "scope": "GOOGLE", "types": ["bar", "restaurant", "point_of_interest", "food", "establishment"], "user_ratings_total": 597, "vicinity": "21 West 52nd Street, New York"}, {"geometry": {"location": {"lat": 40.75937589999999, "lng": -73.98532519999999}, "viewport": {"northeast": {"lat": 40.76077733029149, "lng": -73.98393791970848}, "southwest": {"lat": 40.75807936970849, "lng": -73.98663588029149}}}, "icon": "https://maps.gstatic.com/mapfiles/place_api/icons/restaurant-71.png", "id": "ae0eb1ea46e37e1df38035df8e09859f38d17ac5", "name": "Blue Fin", "opening_hours": {"open_now": false}, "photos": [{"height": 1192, "html_attributions": ["<a href=\"https://maps.google.com/maps/contrib/113254462009664387662/photos\">Blue Fin</a>"], "photo_reference": "CmRaAAAA-vbXC19rYrzJEKtBHn-etWhfCL-Y8T2EMKmpruYcEGMtIz5C-ZCjHkoKcVVHvRLtGAvZj8dZU7MeDGsPR_0esvf6VZamOzV3ozg-6gackWFp1CN51cuLV_1EnuoMgxo4EhAj2sR6kNn2ScIMbxNmZpUdGhSwJ1M2D0IfSpQYA6eoM-6t_zd1Kg", "width": 2119}], "place_id": "ChIJzz-PyFVYwokRwp5z0KduYls", "plus_code": {"compound_code": "Q257+QV New York, United States", "global_code": "87G8Q257+QV"}, "price_level": 3, "rating": 4.2, "reference": "ChIJzz-PyFVYwokRwp5z0KduYls", "scope": "GOOGLE", "types": ["restaurant", "point_of_interest", "food", "establishment"], "user_ratings_total": 563, "vicinity": "1567 Broadway, New York"}, {"geometry": {"location": {"lat": 40.75319939999999, "lng": -73.9829575}, "viewport": {"northeast": {"lat": 40.75483878029149, "lng": -73.9815432697085}, "southwest": {"lat": 40.7521408197085, "lng": -73.9842412302915}}}, "icon": "https://maps.gstatic.com/mapfiles/place_api/icons/restaurant-71.png", "id": "ecc0be6c0de844a4ae75d6a92b219c7b15e41c94", "name": "Bryant Park Grill", "opening_hours": {"open_now": false}, "photos": [{"height": 681, "html_attributions": ["<a href=\"https://maps.google.com/maps/contrib/113955288381291273946/photos\">Bryant Park Grill</a>"], "photo_reference": "CmRaAAAArC_nOZ5shp01fu1jH1sCMNOsgOguT4Mvu55YCLln-8_2vVRikxPjyAJnoEShEIEotOYVEEaSc71P11XGvuf6DrU-GhWEggREfSTQ2Bf_1vNi2l9Lfe4BcviCYvbk5ybjEhD2aF_jcGYqnZNgwm_CnfOnGhS7ST-Jro4Jtmq2v99Sba_jTJ8FGw", "width": 1024}], "place_id": "ChIJqTF1eABZwokR3ZMQ2obIW4w", "plus_code": {"compound_code": "Q238+7R New York, United States", "global_code": "87G8Q238+7R"}, "rating": 4.2, "reference": "ChIJqTF1eABZwokR3ZMQ2obIW4w", "scope": "GOOGLE", "types": ["restaurant", "point_of_interest", "food", "establishment"], "user_ratings_total": 890, "vicinity": "25 West 40th Street, New York"}, {"geometry": {"location": {"lat": 40.75476249999999, "lng": -73.97743609999999}, "viewport": {"northeast": {"lat": 40.7560393802915, "lng": -73.97615946970849}, "southwest": {"lat": 40.75334141970851, "lng": -73.97885743029151}}}, "icon": "https://maps.gstatic.com/mapfiles/place_api/icons/lodging-71.png", "id": "eb4cccf131876fa876d27bacaf7d485050a123c0", "name": "The Roosevelt Hotel", "photos": [{"height": 1044, "html_attributions": ["<a href=\"https://maps.google.com/maps/contrib/114621917412481200729/photos\">The Roosevelt Hotel</a>"], "photo_reference": "CmRaAAAA-QDYOW8JM-dyh2kbe2qW4OcIeRUf-rRD8b5C3erwGhPRSCPMah1fuu5J-SquXI9O69Q3BZHdi6QavLguW1n3Mwlp5a8bbdPcnLl9u4ihPakDl7nbTMeu6dFNuggmXXRLEhCQSox54BlvwB4YlyZdhL-CGhQUDrB1JRVGP7h7HMR9xUR6mut3xg", "width": 1500}], "place_id": "ChIJmSOiBv5YwokR6EhyoFNCayA", "plus_code": {"compound_code": "Q23F+W2 New York, United States", "global_code": "87G8Q23F+W2"}, "price_level": 2, "rating": 3.7, "reference": "ChIJmSOiBv5YwokR6EhyoFNCayA", "scope": "GOOGLE", "types": ["lodging", "restaurant", "point_of_interest", "food", "establishment"], "user_ratings_total": 4777, "vicinity": "45 East 45th Street, New York"}, {"geometry": {"location": {"lat": 40.7584328, "lng": -73.9892194}, "viewport": {"northeast": {"lat": 40.7597393802915, "lng": -73.9877505697085}, "southwest": {"lat": 40.7570414197085, "lng": -73.9904485302915}}}, "icon": "https://maps.gstatic.com/mapfiles/place_api/icons/restaurant-71.png", "id": "8c6f1c2d93a91d29236defcd45c7f7f21f796772", "name": "Shake Shack", "opening_hours": {"open_now": false}, "photos": [{"height": 800, "html_attributions": ["<a href=\"https://maps.google.com/maps/contrib/105303505373661530610/photos\">Hauser Quaid Zzyzx</a>"], "photo_reference": "CmRaAAAAPE5ph-CyJdH2W6zaZd3XDDmBXYHXz5Ptd6A9rqtjJ0NVe3Ma9I6oaOtPAwzHq62qowsYsicnyKzBtWaINoUM4KmVGOHC7RhUPBjD4xBe74WvOBE-L-pl5ptj5BDeCNUtEhAX1I0DEk3ikiH_4hH9L6ulGhSEQCu-IlqMXf4U-M7hFQzEY3q2Ww", "width": 1200}], "place_id": "ChIJhXAgf1NYwokRBzdqc2TRX_I", "plus_code": {"compound_code": "Q256+98 New York, United States", "global_code": "87G8Q256+98"}, "price_level": 2, "rating": 4.3, "reference": "ChIJhXAgf1NYwokRBzdqc2TRX_I", "scope": "GOOGLE", "types": ["meal_takeaway", "store", "restaurant", "point_of_interest", "food", "establishment"], "user_ratings_total": 7959, "vicinity": "691 8th Avenue, New York"}, {"geometry": {"location": {"lat": 40.76032319999999, "lng": -73.98856839999999}, "viewport": {"northeast": {"lat": 40.76156943029149, "lng": -73.98729846970849}, "southwest": {"lat": 40.7588714697085, "lng": -73.9899964302915}}}, "icon": "https://maps.gstatic.com/mapfiles/place_api/icons/restaurant-71.png", "id": "2fe56a72e0e24d7256d32f689bdc1677115ac2fd", "name": "Scarlatto", "opening_hours": {"open_now": false}, "photos": [{"height": 2048, "html_attributions": ["<a href=\"https://maps.google.com/maps/contrib/109217010049429728198/photos\">Scarlatto</a>"], "photo_reference": "CmRaAAAAjKLF1DxP1X99-rou-qhG0mQjJLGACqfZh2HiC3iPz81TSApMMg75DRE_OZlWsZ7kAUEovtANukXlAic8NOx_pX-uD3H5U54mboJXLtmG5Js7aLbWAP0MzbehBM3MXc0FEhBVF5OlNsoXrxxjBQIgKgQpGhRUvRnK6wfYS84T0ya6xRXACGExjw", "width": 1536}], "place_id": "ChIJN5EnLlRYwokRounHpLhSMQE", "plus_code": {"compound_code": "Q266+4H New York, United States", "global_code": "87G8Q266+4H"}, "price_level": 3, "rating": 4.2, "reference": "ChIJN5EnLlRYwokRounHpLhSMQE", "scope": "GOOGLE", "types": ["restaurant", "bar", "point_of_interest", "food", "establishment"], "user_ratings_total": 253, "vicinity": "317 West 46th Street, New York"}, {"geometry": {"location": {"lat": 40.7618723, "lng": -73.98343559999999}, "viewport": {"northeast": {"lat": 40.7632961302915, "lng": -73.9822232697085}, "southwest": {"lat": 40.7605981697085, "lng": -73.9849212302915}}}, "icon": "https://maps.gstatic.com/mapfiles/place_api/icons/restaurant-71.png", "id": "0b97b5fcf0712a502eb359a42effb2b116521ded", "name": "Ellen's Stardust Diner", "opening_hours": {"open_now": false}, "photos": [{"height": 719, "html_attributions": ["<a href=\"https://maps.google.com/maps/contrib/107057223123337975560/photos\">Ellen\u2019s Stardust Diner</a>"], "photo_reference": "CmRaAAAAYvCV7TawDBu12vdBRZpdMlxDdboGj0_jj2Apj93Gtq-bjXabRjBdwRH50le3MG_uirCvd7VzxkKc8MNuv06gPfHZQBCPyZL8DelPriRXWelVyAHIfT5vNmZWl7j5gPnCEhDcHgdjdrsAGYbHhcr1CrDYGhSzvUfTChIBWsSx9iUSjPzbHCnPLg", "width": 960}], "place_id": "ChIJ_85dJlZYwokR29NPLSJngR4", "plus_code": {"compound_code": "Q268+PJ New York, United States", "global_code": "87G8Q268+PJ"}, "price_level": 2, "rating": 4.3, "reference": "ChIJ_85dJlZYwokR29NPLSJngR4", "scope": "GOOGLE", "types": ["restaurant", "point_of_interest", "food", "establishment"], "user_ratings_total": 7288, "vicinity": "1650 Broadway, New York"}, {"geometry": {"location": {"lat": 40.755551, "lng": -73.989597}, "viewport": {"northeast": {"lat": 40.75687028029149, "lng": -73.9882699697085}, "southwest": {"lat": 40.75417231970849, "lng": -73.9909679302915}}}, "icon": "https://maps.gstatic.com/mapfiles/place_api/icons/restaurant-71.png", "id": "28df6312f117f365f0e7e1793d572bea9774b64c", "name": "Inakaya NY", "opening_hours": {"open_now": false}, "photos": [{"height": 3648, "html_attributions": ["<a href=\"https://maps.google.com/maps/contrib/116400130476438113335/photos\">Inakaya NY</a>"], "photo_reference": "CmRZAAAAy6OgtjepxkumQM9yYwc3rBidmDNeTQ7W8_1x9CM2sud93ZMxRfFAPsQycU3YeVbhy8q5FsPOSCiDd74dxQwUW6yfotBbj6QOIg48DvCENvQnTQI3z4rjX8VPpJJlEVgcEhBblDw4cN285Y35PCX3eaxHGhRavmvsjRDXj1yN0zRKy7dqR76FSg", "width": 5472}], "place_id": "ChIJt2w8pqxZwokRP8t7c2IA7Yw", "plus_code": {"compound_code": "Q246+65 New York, United States", "global_code": "87G8Q246+65"}, "price_level": 3, "rating": 4.3, "reference": "ChIJt2w8pqxZwokRP8t7c2IA7Yw", "scope": "GOOGLE", "types": ["bar", "restaurant", "point_of_interest", "food", "establishment"], "user_ratings_total": 472, "vicinity": "231 West 40th Street, New York"}, {"geometry": {"location": {"lat": 40.7594099, "lng": -73.98222}, "viewport": {"northeast": {"lat": 40.7606587802915, "lng": -73.9802762697085}, "southwest": {"lat": 40.7579608197085, "lng": -73.9829742302915}}}, "icon": "https://maps.gstatic.com/mapfiles/place_api/icons/restaurant-71.png", "id": "3584843e0761b8fff5fe01499e927ba644e52445", "name": "Del Frisco's Double Eagle Steakhouse", "opening_hours": {"open_now": false}, "photos": [{"height": 1363, "html_attributions": ["<a href=\"https://maps.google.com/maps/contrib/113759600496570974304/photos\">Del Frisco&#39;s Double Eagle Steakhouse</a>"], "photo_reference": "CmRaAAAA-ymX51xazy3YaRd60F6w8Tx6bFnwPkz_ItxyPBMM1DZYerkNj6s8YVJzPtkH-nfKm7xXOvb2Yh_oVlr-SQYgobrc3_X2VSFfzHuHaIJRr1daJdZrXN87xfII1WxVsBDWEhACDXB-P3k3lCZVRIsOkLSLGhT9MTpNwx_vegXBKNQReBWnEz209g", "width": 2048}], "place_id": "ChIJE1bnSP9YwokRDK7Zxnt23gE", "plus_code": {"compound_code": "Q259+Q4 New York, United States", "global_code": "87G8Q259+Q4"}, "price_level": 4, "rating": 4.5, "reference": "ChIJE1bnSP9YwokRDK7Zxnt23gE", "scope": "GOOGLE", "types": ["bar", "restaurant", "point_of_interest", "food", "establishment"], "user_ratings_total": 2454, "vicinity": "1221 6th Avenue, New York"}, {"geometry": {"location": {"lat": 40.75385900000001, "lng": -73.9890635}, "viewport": {"northeast": {"lat": 40.7551270302915, "lng": -73.98779051970851}, "southwest": {"lat": 40.7524290697085, "lng": -73.99048848029152}}}, "icon": "https://maps.gstatic.com/mapfiles/place_api/icons/restaurant-71.png", "id": "63832c563b0f4aabceb6a2b7b91f2592920b870c", "name": "Bonchon - 38th Street", "opening_hours": {"open_now": false}, "photos": [{"height": 639, "html_attributions": ["<a href=\"https://maps.google.com/maps/contrib/103091590032336395176/photos\">Bonchon - 38th Street</a>"], "photo_reference": "CmRaAAAA6MaOyKHEmNsp8QrC319FyfLNofniVnGURjHHZubig74OlF0zZiuSjigU0d3N60nR2gRTRBJ6BnPB9E8l61RHRPRWNdzoBUIghsiRFcAOgPJVbFxgM0t1zMuJN1WbfmbgEhAv1_q8zOfei-mLBKrgvpmuGhRwspHPX5jimsUHYwlu2xbrV4e_lg", "width": 1136}], "place_id": "ChIJv_ShgaxZwokRatzSt5XG3PU", "plus_code": {"compound_code": "Q236+G9 New York, United States", "global_code": "87G8Q236+G9"}, "price_level": 2, "rating": 4.1, "reference": "ChIJv_ShgaxZwokRatzSt5XG3PU", "scope": "GOOGLE", "types": ["restaurant", "point_of_interest", "food", "establishment"], "user_ratings_total": 745, "vicinity": "207 West 38th Street, New York"}, {"geometry": {"location": {"lat": 40.7554075, "lng": -73.9789116}, "viewport": {"northeast": {"lat": 40.7566231302915, "lng": -73.97751901970848}, "southwest": {"lat": 40.7539251697085, "lng": -73.9802169802915}}}, "icon": "https://maps.gstatic.com/mapfiles/place_api/icons/restaurant-71.png", "id": "2cd6eb359625152c044b81e72dab2aa9ec302dd9", "name": "Morton's The Steakhouse", "opening_hours": {"open_now": false}, "photos": [{"height": 1179, "html_attributions": ["<a href=\"https://maps.google.com/maps/contrib/116080097705469534780/photos\">Morton&#39;s The Steakhouse</a>"], "photo_reference": "CmRaAAAAH1odwNEmSz1uXp9jk_Pvo-PyCP5aokhNp53btO6kTG2nr5HMu0h_jpx907vIXHY2F-VN4-EBQX8q9xU6EmScvhb0oFkQGktLXXGzLn7a6VlXFpxZ50wqRjLP1Eiu_iaXEhAd1a3SmeWQDoAGmDFbdPj3GhS_198RQpNKoHy-n1cvHIUv3W9ouA", "width": 1766}], "place_id": "ChIJR7SnMP5YwokR-8MZMiv4mJ0", "plus_code": {"compound_code": "Q24C+5C New York, United States", "global_code": "87G8Q24C+5C"}, "price_level": 4, "rating": 4.5, "reference": "ChIJR7SnMP5YwokR-8MZMiv4mJ0", "scope": "GOOGLE", "types": ["restaurant", "point_of_interest", "food", "establishment"], "user_ratings_total": 828, "vicinity": "551 5th Avenue, New York"}, {"geometry": {"location": {"lat": 40.7654454, "lng": -73.9805358}, "viewport": {"northeast": {"lat": 40.7667132802915, "lng": -73.9790216197085}, "southwest": {"lat": 40.7640153197085, "lng": -73.98171958029151}}}, "icon": "https://maps.gstatic.com/mapfiles/place_api/icons/restaurant-71.png", "id": "4f6d1cf09903e01de367af1b3db46a56628f9851", "name": "Trattoria Dell'Arte", "opening_hours": {"open_now": false}, "photos": [{"height": 2250, "html_attributions": ["<a href=\"https://maps.google.com/maps/contrib/105303505373661530610/photos\">Hauser Quaid Zzyzx</a>"], "photo_reference": "CmRaAAAApWQLj0s8jtxQi1-f1_qTknMUGnSpunseO2h-7IXAKITG-i9uTNM3ToR7hqk8P6XvSBX-Si8RySBgRea3LcAv_biExavQVpvUsaf-1fsCFSUFDW9eYknmORm0JFXrpgy_EhCeRwjWLqWV8obhlRi5aC_VGhSGl8KmUgCmGIklRqz0myESd-ZIww", "width": 4000}], "place_id": "ChIJNaoHnvdYwokRFxwsSD4urZg", "plus_code": {"compound_code": "Q289+5Q New York, United States", "global_code": "87G8Q289+5Q"}, "price_level": 3, "rating": 4.4, "reference": "ChIJNaoHnvdYwokRFxwsSD4urZg", "scope": "GOOGLE", "types": ["bar", "restaurant", "point_of_interest", "food", "establishment"], "user_ratings_total": 954, "vicinity": "900 7th Avenue, New York"}, {"geometry": {"location": {"lat": 40.7570352, "lng": -73.9866112}, "viewport": {"northeast": {"lat": 40.75828523029151, "lng": -73.9853353697085}, "southwest": {"lat": 40.75558726970851, "lng": -73.9880333302915}}}, "icon": "https://maps.gstatic.com/mapfiles/place_api/icons/restaurant-71.png", "id": "44a01fe3973f37c3f0fb92168fa5cb937fbf5f3f", "name": "Hard Rock Cafe", "opening_hours": {"open_now": false}, "photos": [{"height": 2468, "html_attributions": ["<a href=\"https://maps.google.com/maps/contrib/105303505373661530610/photos\">Hauser Quaid Zzyzx</a>"], "photo_reference": "CmRaAAAA47knYbsQgENr3IcGmQnHCcHjYaR2qehAkMRC5_ch0Cwldou536-rX-8UxSwBQjw6NNGW6AmkN9spamEY1aWa8hMwsCW9JxgdAWtSqx_zt-pVBPRxgwhp2Ke5l4j1DQc6EhAoJkumttWVUZktohahpv95GhT9Zde6s6_luLJps284zAWbaTI7xA", "width": 4000}], "place_id": "ChIJh3tl5lRYwokRtY1QuaZADu0", "plus_code": {"compound_code": "Q247+R9 New York, United States", "global_code": "87G8Q247+R9"}, "price_level": 2, "rating": 4.3, "reference": "ChIJh3tl5lRYwokRtY1QuaZADu0", "scope": "GOOGLE", "types": ["restaurant", "point_of_interest", "food", "establishment"], "user_ratings_total": 11096, "vicinity": "1501 Broadway, New York"}, {"geometry": {"location": {"lat": 40.755587, "lng": -73.98752999999999}, "viewport": {"northeast": {"lat": 40.7568666302915, "lng": -73.9860966697085}, "southwest": {"lat": 40.7541686697085, "lng": -73.98879463029151}}}, "icon": "https://maps.gstatic.com/mapfiles/place_api/icons/restaurant-71.png", "id": "e65cfc8bb0273851d86190dbb17844a316f44933", "name": "Red Lobster", "opening_hours": {"open_now": false}, "photos": [{"height": 2304, "html_attributions": ["<a href=\"https://maps.google.com/maps/contrib/105628057370019574017/photos\">Saurabh Rakhunde</a>"], "photo_reference": "CmRaAAAArCR6_igB2_JgrRKIsMkVi5tL1SxAMbCcN_ZFQyFAwDVnJIP_OtbGZLBjEwl_NNfIwd5wNTcxK1oCGjbRz1Sw-gbwUnGOVXkTmxA63Fqh85BvzQoxmY7YkNIc-Jkyv70_EhDGdM_yxZ2xzZ2wBgdCF81FGhSdJ-CXsn9i0p-RU_2hrCKMDZNvBQ", "width": 4096}], "place_id": "ChIJc4euylRYwokRnweuR3UzKYI", "plus_code": {"compound_code": "Q246+6X New York, United States", "global_code": "87G8Q246+6X"}, "price_level": 2, "rating": 4.1, "reference": "ChIJc4euylRYwokRnweuR3UzKYI", "scope": "GOOGLE", "types": ["bar", "restaurant", "point_of_interest", "food", "establishment"], "user_ratings_total": 4048, "vicinity": "Five Times Square, 5, New York"}, {"geometry": {"location": {"lat": 40.7579436, "lng": -73.9851237}, "viewport": {"northeast": {"lat": 40.7593103302915, "lng": -73.9839365197085}, "southwest": {"lat": 40.7566123697085, "lng": -73.9866344802915}}}, "icon": "https://maps.gstatic.com/mapfiles/place_api/icons/restaurant-71.png", "id": "0e09988f75c312064c77c6667d2a14550d99a771", "name": "Planet Hollywood", "opening_hours": {"open_now": false}, "photos": [{"height": 471, "html_attributions": ["<a href=\"https://maps.google.com/maps/contrib/116155653431661068032/photos\">Planet Hollywood</a>"], "photo_reference": "CmRaAAAA4ofN6-plWmY3an9LHtbBg1gk_55wTzAH_bB7SGfm0TM6-_Q3-J6BBWN6DhVr4WvsN3JhjaIpfUQ34Z0l2R1wLiHRuvHDaPGCLJ2ZzM6-RvhGpMmtUUziYF0m468C85r1EhDE_-mOWrL00mfGDXcpxmNcGhQNvvx9F6l2CzKw6_j074FRm9mFZQ", "width": 837}], "place_id": "ChIJf2_0qFVYwokRu7dmhsHUrpo", "plus_code": {"compound_code": "Q257+5X New York, United States", "global_code": "87G8Q257+5X"}, "price_level": 2, "rating": 3.8, "reference": "ChIJf2_0qFVYwokRu7dmhsHUrpo", "scope": "GOOGLE", "types": ["restaurant", "point_of_interest", "food", "establishment"], "user_ratings_total": 2542, "vicinity": "1540 Broadway, New York"}, {"geometry": {"location": {"lat": 40.7595183, "lng": -73.9847419}, "viewport": {"northeast": {"lat": 40.7607717802915, "lng": -73.98334786970848}, "southwest": {"lat": 40.7580738197085, "lng": -73.9860458302915}}}, "icon": "https://maps.gstatic.com/mapfiles/place_api/icons/restaurant-71.png", "id": "1a7446d83a402d9d788f3a763a0db945c2e0c201", "name": "Olive Garden Italian Restaurant", "opening_hours": {"open_now": false},